[{"": "0", "address": "15041 N Airport Dr", "business_id": "A_Ij4SwFmlRbVtRnsdSzWA", "city": "Scottsdale", "latitude": "33.6218351", "longitude": "-111.9155977", "name": "Ciao Baby Catering", "postal_code": "85260", "review_count": "5", "stars": "2.0", "state": "AZ"}, {"": "1", "address": "908 E 8th Ave", "business_id": "FmGZh8ZwEnSO860_2eiYHw", "city": "Homestead", "latitude": "40.409116", "longitude": "-79.897415", "name": "Enterprise Rent-A-Car", "postal_code": "15120", "review_count": "4", "stars": "3.0", "state": "PA"}, {"": "2", "address": "8540 E Independence Blvd", "business_id": "NFTh6mj3X2AnHJCKIFUk5Q", "city": "Charlotte", "latitude": "35.147422", "longitude": "-80.726487", "name": "Fairfield Inn & Suites", "postal_code": "28105", "review_count": "17", "stars": "4.0", "state": "NC"}, {"": "3", "address": "701 E Washington Ave, Ste 105", "business_id": "NoxzrJbWS4xD9ft0ygD3JA", "city": "Madison", "latitude": "43.0798171", "longitude": "-89.3762962", "name": "The Brink Lounge", "postal_code": "53703", "review_count": "30", "stars": "3.5", "state": "WI"}, {"": "4", "address": "1 I-X Center Dr", "business_id": "w5WBrukfSuEyTjYUYlV4Ug", "city": "Cleveland", "latitude": "41.3985053", "longitude": "-81.8532205", "name": "International Exposition Center", "postal_code": "44135", "review_count": "16", "stars": "4.0", "state": "OH"}, {"": "5", "address": "3430 E Tropicana Ave", "business_id": "DAG8irsIf0hMsEgDbrOE_A", "city": "Las Vegas", "latitude": "36.1009203", "longitude": "-115.099617", "name": "Layla's Palace", "postal_code": "89121", "review_count": "5", "stars": "5.0", "state": "NV"}, {"": "6", "address": "5888 Spring Ranch Pkwy", "business_id": "EXsmUB2mJyJsCpCV-56Ujw", "city": "Las Vegas", "latitude": "36.090924", "longitude": "-115.2221746", "name": "Paulina Clute Events", "postal_code": "89118", "review_count": "16", "stars": "5.0", "state": "NV"}, {"": "7", "address": "2210 Markham Road, Unit 3", "business_id": "WSZL9uQ9JMOrrulMKEl7Tw", "city": "Toronto", "latitude": "43.8092819369", "longitude": "-79.2445393614", "name": "Mayze", "postal_code": "M1B 5V6", "review_count": "32", "stars": "4.5", "state": "ON"}, {"": "8", "address": "35110 Maplegrove Rd", "business_id": "iOudjMD1sFvD9QTltPQiTg", "city": "Willoughby", "latitude": "41.6053496", "longitude": "-81.4366698", "name": "Motel 6 Cleveland-Willoughby", "postal_code": "44094", "review_count": "15", "stars": "2.5", "state": "OH"}, {"": "9", "address": "1900 Yonge St", "business_id": "98YzjvO45DRRvqrNv0hhAA", "city": "Toronto", "latitude": "43.6977811", "longitude": "-79.3967577", "name": "TTC - Toronto Transit Commision", "postal_code": "M4S 1Z1", "review_count": "131", "stars": "2.5", "state": "ON"}, {"": "10", "address": "707 E Lancaster Ave", "business_id": "AXb5gCwqHl-_v6ZIMb1mXQ", "city": "Frazer", "latitude": "40.0339411", "longitude": "-75.5818949", "name": "Sheraton Great Valley Hotel", "postal_code": "19355", "review_count": "43", "stars": "3.0", "state": "PA"}, {"": "11", "address": "5060 S Fort Apache Rd, Ste 100", "business_id": "Q1MzgzH263RgYX4TU4xQ2Q", "city": "Las Vegas", "latitude": "36.0967114", "longitude": "-115.296528", "name": "Bridal Wear House", "postal_code": "89148", "review_count": "4", "stars": "2.0", "state": "NV"}, {"": "12", "address": "10166 E Clinton St", "business_id": "TzlaonysPohYJyLIFTk6Jg", "city": "Scottsdale", "latitude": "33.584122", "longitude": "-111.861887", "name": "Az Vip Transportation", "postal_code": "85260", "review_count": "3", "stars": "5.0", "state": "AZ"}, {"": "13", "address": "T\u00c3\u00bcbinger Str. 22", "business_id": "by_hdCLqAMHW8EEfPYjktA", "city": "Stuttgart", "latitude": "48.7716", "longitude": "9.17372", "name": "Vital Lunch", "postal_code": "70178", "review_count": "6", "stars": "3.0", "state": "BW"}, {"": "14", "address": "1625 N Central Ave", "business_id": "irYAkavSVtIEyGOsHK-yPw", "city": "Phoenix", "latitude": "33.4667324", "longitude": "-112.0727233", "name": "Palette", "postal_code": "85004", "review_count": "43", "stars": "3.5", "state": "AZ"}, {"": "15", "address": "607 Washington Rd, Ste 100", "business_id": "UFHwS_Bb5IrVYFWGutkY7A", "city": "Pittsburgh", "latitude": "40.382944", "longitude": "-80.043616", "name": "Fluhme Glam Bar", "postal_code": "15228", "review_count": "6", "stars": "5.0", "state": "PA"}, {"": "16", "address": "10230 Hickorywood Hill Ave, Ste B", "business_id": "78Gz9WWdiEJMBfQ1MFWUSg", "city": "Huntersville", "latitude": "35.4113116", "longitude": "-80.8600863", "name": "360 Visuals", "postal_code": "28078", "review_count": "4", "stars": "5.0", "state": "NC"}, {"": "17", "address": "5188 Paradise Rd", "business_id": "oI75bK_eIr17BfGaMJnXMQ", "city": "Las Vegas", "latitude": "36.0947016", "longitude": "-115.1478721", "name": "Budget Car and Truck Rental", "postal_code": "89119", "review_count": "5", "stars": "1.0", "state": "NV"}, {"": "18", "address": "2898 Banksville Rd", "business_id": "cs2VDcXDee_jzJoPT_fycA", "city": "Pittsburgh", "latitude": "40.4038660051", "longitude": "-80.0408175681", "name": "Motel 6", "postal_code": "15216", "review_count": "16", "stars": "2.5", "state": "PA"}, {"": "19", "address": "2020 W Union Hills Dr", "business_id": "UX0Gp7fwXIaLjGS3aupV9Q", "city": "Phoenix", "latitude": "33.65636", "longitude": "-112.102264", "name": "Alice's Cuisine", "postal_code": "85027", "review_count": "9", "stars": "5.0", "state": "AZ"}, {"": "20", "address": "3101 Yonge St", "business_id": "17fB9l8NWZRWDbbAs8iqtw", "city": "Toronto", "latitude": "43.7253628", "longitude": "-79.4019375", "name": "Lawrence Station", "postal_code": "M4N 2K7", "review_count": "3", "stars": "3.5", "state": "ON"}, {"": "21", "address": "401 South Tryon St", "business_id": "ckq5AFmnoNxK8xtuRVtnsQ", "city": "Charlotte", "latitude": "35.2246161", "longitude": "-80.8464246", "name": "Now It's A Party!", "postal_code": "28202", "review_count": "5", "stars": "5.0", "state": "NC"}, {"": "22", "address": "16131 Lancaster Hwy", "business_id": "K8NUJWxYXlRyNS4SzZYMrw", "city": "Charlotte", "latitude": "35.028656", "longitude": "-80.8511594", "name": "Dunkin' Donuts", "postal_code": "28277", "review_count": "17", "stars": "2.5", "state": "NC"}, {"": "23", "address": "1225 S Fort Apache Rd, Ste 160", "business_id": "m5mXo_UzCUZPfL7BXzApFQ", "city": "Las Vegas", "latitude": "36.1569588001", "longitude": "-115.292491731", "name": "Hair by Erika Shear", "postal_code": "89117", "review_count": "4", "stars": "5.0", "state": "NV"}, {"": "24", "address": "8757 E Bell Rd", "business_id": "bm6BYbNvzBzs1xecmAQF0w", "city": "Scottsdale", "latitude": "33.639811", "longitude": "-111.893689", "name": "TravelBug Health", "postal_code": "85260", "review_count": "5", "stars": "5.0", "state": "AZ"}, {"": "25", "address": "417 S Century Blvd", "business_id": "O7mJ04jvwofUzMtKW1-R9w", "city": "Rantoul", "latitude": "40.305551", "longitude": "-88.155305", "name": "Action Rents", "postal_code": "61866", "review_count": "3", "stars": "2.5", "state": "IL"}, {"": "26", "address": "155 YMCA Boulevard", "business_id": "RNm2Qd7hug_95UMLY6wDiw", "city": "Markham", "latitude": "43.8517", "longitude": "-79.3143367", "name": "Unionville GO Station", "postal_code": "L6G 0A1", "review_count": "3", "stars": "4.0", "state": "ON"}, {"": "27", "address": "4000 North Drinkwater Blvd", "business_id": "LPq-IOpA_VrZ2xRh1A6Ssw", "city": "Scottsdale", "latitude": "33.4941213", "longitude": "-111.9227616", "name": "The Saguaro Restaurant", "postal_code": "85251", "review_count": "10", "stars": "3.5", "state": "AZ"}, {"": "28", "address": "", "business_id": "wrbF8GuuXY5hNj8AeiOulg", "city": "Toronto", "latitude": "43.7063972", "longitude": "-79.309937", "name": "Culinary Adventure", "postal_code": "M4B", "review_count": "11", "stars": "5.0", "state": "ON"}, {"": "29", "address": "University Center Ii Lot", "business_id": "P3MxhuaPiI4Kfq1YJMM7LA", "city": "Phoenix", "latitude": "33.6087725", "longitude": "-112.1607233", "name": "Zipcar", "postal_code": "85008", "review_count": "8", "stars": "3.5", "state": "AZ"}, {"": "30", "address": "23280 N 43rd Ave", "business_id": "VqKY1LnyzL1RFjdqU8v9VQ", "city": "Glendale", "latitude": "33.6962615", "longitude": "-112.1526514", "name": "Adobe Western Railroad", "postal_code": "85310", "review_count": "3", "stars": "3.5", "state": "AZ"}, {"": "31", "address": "5440 E Peak View Rd", "business_id": "bC9NBHWWkUDnPe8zCKZlwQ", "city": "Cave Creek", "latitude": "33.7483729", "longitude": "-111.9604359", "name": "Windwalker Expeditions", "postal_code": "85331", "review_count": "13", "stars": "4.5", "state": "AZ"}, {"": "32", "address": "783 College Street", "business_id": "3TI-gEvrp6daa1jV4tRF-A", "city": "Toronto", "latitude": "43.654834", "longitude": "-79.4200269", "name": "Revival", "postal_code": "M6G 1C5", "review_count": "35", "stars": "3.5", "state": "ON"}, {"": "33", "address": "5835 S Sossaman Rd", "business_id": "rtTzTba5vNXtAHJYJ-wgRQ", "city": "MESA", "latitude": "33.3097917", "longitude": "-111.6692037", "name": "Allegiant", "postal_code": "85212", "review_count": "220", "stars": "1.5", "state": "AZ"}, {"": "34", "address": "1480 Concord Pkwy N, Ste 295", "business_id": "z_PrJbSpgtK218RYIfqmVA", "city": "Concord", "latitude": "35.4403311", "longitude": "-80.6035231", "name": "Xtreme Play", "postal_code": "28025", "review_count": "3", "stars": "3.5", "state": "NC"}, {"": "35", "address": "8745 Tanglewood Trl", "business_id": "8U7Ci7vkcthVB-zOtMJRiA", "city": "Chagrin Falls", "latitude": "41.3984554", "longitude": "-81.3311331", "name": "The Tanglewood Club", "postal_code": "44023", "review_count": "3", "stars": "4.5", "state": "OH"}, {"": "36", "address": "3 Park Home Avenue", "business_id": "gXjcL8ZDCpFG1J8pxaxdFA", "city": "North York", "latitude": "43.7683918", "longitude": "-79.4143753", "name": "Novotel", "postal_code": "M2N 6L3", "review_count": "25", "stars": "2.5", "state": "ON"}, {"": "37", "address": "3340 Topaz St, Ste 210", "business_id": "mRjJFIVsR3TIVbwwkujpYw", "city": "Las Vegas", "latitude": "36.1289842", "longitude": "-115.1138629", "name": "Starpoint Resort Group", "postal_code": "89121", "review_count": "17", "stars": "1.0", "state": "NV"}, {"": "38", "address": "1637C Amherst Rue", "business_id": "7cemzdOZx3EE6nNP4z31vA", "city": "Montr\u00c3\u00a9al", "latitude": "45.5187579", "longitude": "-73.5596185", "name": "Loggia (La)", "postal_code": "H2L 3L4", "review_count": "7", "stars": "4.5", "state": "QC"}, {"": "39", "address": "Waverley Bridge", "business_id": "9byQk8RGRi8VpAPZl_LeSQ", "city": "Edinburgh", "latitude": "55.9526313", "longitude": "-3.1912938", "name": "Mac Tours City Tour", "postal_code": "EH1 1BQ", "review_count": "4", "stars": "5.0", "state": "EDH"}, {"": "40", "address": "", "business_id": "CrhczedetSPk3MN81fmN9Q", "city": "Scottsdale", "latitude": "33.468848", "longitude": "-111.910516", "name": "Photography by Jake", "postal_code": "85257", "review_count": "4", "stars": "5.0", "state": "AZ"}, {"": "41", "address": "6500 Place Robert-Joncas", "business_id": "Ga7UBeAUwsohodzynhwYsw", "city": "Montreal", "latitude": "45.4930596314", "longitude": "-73.7000028603", "name": "Residence Inn by Marriott Montreal Airport", "postal_code": "H4M 2Z5", "review_count": "8", "stars": "4.5", "state": "QC"}, {"": "42", "address": "7113 Reynolds St", "business_id": "SIJm66InxhHRTcLPB6OwKA", "city": "Pittsburgh", "latitude": "40.4469573", "longitude": "-79.9046812", "name": "PointBreezeway", "postal_code": "15208", "review_count": "12", "stars": "5.0", "state": "PA"}, {"": "43", "address": "9 E Wilson", "business_id": "SOhDXouPwa6C5cf-3hcl2Q", "city": "Madison", "latitude": "43.0726974", "longitude": "-89.3806495", "name": "Hilton Madison", "postal_code": "53703", "review_count": "98", "stars": "3.5", "state": "WI"}, {"": "44", "address": "6400 S Eastern Ave", "business_id": "34YwmimX2PXqFlm0p18jyA", "city": "Las Vegas", "latitude": "36.0731060456", "longitude": "-115.11729151", "name": "J & A Flowers And Gifts", "postal_code": "89119", "review_count": "10", "stars": "3.5", "state": "NV"}, {"": "45", "address": "1B Chambers Street, Edinburgh Centre South Bridge", "business_id": "935lHZ5uOpWRXGpp2ytCGQ", "city": "Edinburgh", "latitude": "55.9485408216", "longitude": "-3.186845265", "name": "Hotel Ibis", "postal_code": "EH1 1HR", "review_count": "8", "stars": "3.5", "state": "EDH"}, {"": "46", "address": "2100 Winnebago St", "business_id": "XXo6JbN_i_WpsXp_C5zPPg", "city": "Madison", "latitude": "43.0939689", "longitude": "-89.3545383", "name": "Madison Circus Space", "postal_code": "53704", "review_count": "3", "stars": "4.5", "state": "WI"}, {"": "47", "address": "1401 Airport Rd", "business_id": "pELYR3hDc20IwzzR-ZTcTA", "city": "Boulder City", "latitude": "35.9492193384", "longitude": "-114.857865572", "name": "Skydive Las Vegas", "postal_code": "89005", "review_count": "129", "stars": "4.5", "state": "NV"}, {"": "48", "address": "7875 W Sahara Ave, Ste 101", "business_id": "v0byOL8VL6v6muGa1anxFA", "city": "Las Vegas", "latitude": "36.1432041", "longitude": "-115.262866", "name": "The Hummus Factory", "postal_code": "89117", "review_count": "214", "stars": "4.5", "state": "NV"}, {"": "49", "address": "Excalibur Hotel And Casino, 3850 Las Vegas Blvd S", "business_id": "o7AiTlyWUrBSzdz6oMHj5w", "city": "Las Vegas", "latitude": "36.0987324905", "longitude": "-115.174725631", "name": "Excalibur Hotel", "postal_code": "89109", "review_count": "2504", "stars": "2.5", "state": "NV"}, {"": "50", "address": "3111 W Chandler Blvd", "business_id": "uWjB-KjEFQekRpI-91022Q", "city": "Chandler", "latitude": "33.3014704", "longitude": "-111.8984059", "name": "Kiddie Kandids", "postal_code": "85226", "review_count": "3", "stars": "2.0", "state": "AZ"}, {"": "51", "address": "16706 Northcross Dr", "business_id": "WtqzJcXEt5lc0hSeJ-bAJg", "city": "Huntersville", "latitude": "35.4422202579", "longitude": "-80.8735585213", "name": "Bob Evans", "postal_code": "28078", "review_count": "24", "stars": "3.0", "state": "NC"}, {"": "52", "address": "Metro Toronto Convention Centre, 222 Bremner Boulevard", "business_id": "6sBEq5wssRJ8du-1YZkZRg", "city": "Toronto", "latitude": "43.6429123", "longitude": "-79.3854024", "name": "Cashew & Clive", "postal_code": "M5V 2T6", "review_count": "5", "stars": "1.0", "state": "ON"}, {"": "53", "address": "1655 S Mojave Rd", "business_id": "hFiwhATkS_mrfBB-BqDa2A", "city": "Las Vegas", "latitude": "36.153625", "longitude": "-115.106262", "name": "Paul's Vegas Photography", "postal_code": "89104", "review_count": "12", "stars": "5.0", "state": "NV"}, {"": "54", "address": "7 Clifton Terrace", "business_id": "Sssq4txZLCaMRqbFDQ9TvA", "city": "Edinburgh", "latitude": "55.9459497273", "longitude": "-3.2180032656", "name": "Tune Hotel", "postal_code": "EH12 5DR", "review_count": "7", "stars": "4.0", "state": "EDH"}, {"": "55", "address": "", "business_id": "zcVZc4SadqLgUHKWL2ZilQ", "city": "Las Vegas", "latitude": "36.0809667", "longitude": "-115.2244853", "name": "ChefKas Catering", "postal_code": "89118", "review_count": "25", "stars": "4.5", "state": "NV"}, {"": "56", "address": "6 Hunter Square", "business_id": "zvmplfsPZeJPo-NKEzwq_w", "city": "Edinburgh", "latitude": "55.949705", "longitude": "-3.187988", "name": "Ibis Hotel", "postal_code": "EH1 1QW", "review_count": "14", "stars": "3.5", "state": "EDH"}, {"": "57", "address": "221 N Rampart Blvd", "business_id": "z8XIldYr65CKOz8yOI5R8A", "city": "Las Vegas", "latitude": "36.1758507535", "longitude": "-115.291116797", "name": "JW Marriott Las Vegas Resort & Spa", "postal_code": "89145", "review_count": "326", "stars": "3.5", "state": "NV"}, {"": "58", "address": "1100 W Bloomington Rd", "business_id": "rNbAIbTn0zN8yNk0IV7dfQ", "city": "Champaign", "latitude": "40.135026", "longitude": "-88.263165", "name": "The Cake Artist's Studio", "postal_code": "61820", "review_count": "32", "stars": "4.5", "state": "IL"}, {"": "59", "address": "200 S 3rd St", "business_id": "QRbIBAnX-5LnKZsKrrObUg", "city": "Las Vegas", "latitude": "36.168669", "longitude": "-115.144651", "name": "Downtown Las Vegas Events Center", "postal_code": "89101", "review_count": "32", "stars": "3.0", "state": "NV"}, {"": "60", "address": "280 Bloor Street West", "business_id": "hPGdg4LjrW_FH7mwFxFnQw", "city": "Toronto", "latitude": "43.6675700027", "longitude": "-79.4008654339", "name": "Holiday Inn Toronto Bloor-Yorkville", "postal_code": "M5S 1V8", "review_count": "35", "stars": "3.0", "state": "ON"}, {"": "61", "address": "7450 Kingston Rd", "business_id": "W_YJsiGTHPExzqDoiDzTvg", "city": "Toronto", "latitude": "43.8050234", "longitude": "-79.1394137", "name": "Glen Rouge Campground", "postal_code": "M1B", "review_count": "6", "stars": "3.5", "state": "ON"}, {"": "62", "address": "73 Belford Rd", "business_id": "dvObDGjqEY0jbV4WVCdKaA", "city": "Edinburgh", "latitude": "55.9518318176", "longitude": "-3.2241990566", "name": "Dean Gallery Shop", "postal_code": "EH4 3DS", "review_count": "3", "stars": "4.5", "state": "EDH"}, {"": "63", "address": "11 Airport Rd", "business_id": "HGO_cdDG5iGgkxKsKd_Vcw", "city": "Champaign", "latitude": "40.0363225", "longitude": "-88.2640396", "name": "Hertz Rent A Car", "postal_code": "61874", "review_count": "4", "stars": "1.0", "state": "IL"}, {"": "64", "address": "13416 N Cave Creek Rd", "business_id": "TqL4BDwjIGFR8D6BpYUGJA", "city": "Phoenix", "latitude": "33.6085279", "longitude": "-112.0366456", "name": "Classic Delivery & Moving", "postal_code": "85022", "review_count": "18", "stars": "4.0", "state": "AZ"}, {"": "65", "address": "100 Bridgeland Avenue, Unit 1", "business_id": "gJzmRmsCQ1149QSc0EhnFA", "city": "Toronto", "latitude": "43.726348", "longitude": "-79.4621397", "name": "Kidnetix Edu-Play Centre", "postal_code": "M6A 2V1", "review_count": "7", "stars": "2.5", "state": "ON"}, {"": "66", "address": "516 S 6th St", "business_id": "GcLUrSRAB4EOghqHCfiF5g", "city": "Las Vegas", "latitude": "36.1636496", "longitude": "-115.1432704", "name": "The Wedding Place", "postal_code": "89101", "review_count": "15", "stars": "4.0", "state": "NV"}, {"": "67", "address": "201 S Main St", "business_id": "ci8DUyiHEs6tToRNKv2Q-Q", "city": "Kannapolis", "latitude": "35.4960586", "longitude": "-80.6247281", "name": "Amtrak - Kannapolis Station", "postal_code": "28081", "review_count": "3", "stars": "4.0", "state": "NC"}, {"": "68", "address": "6408 N Tryon", "business_id": "mR8ig03ARowcVELNEeQXFw", "city": "Charlotte", "latitude": "35.2752686", "longitude": "-80.7664162", "name": "Carolina Rent A Car", "postal_code": "28213", "review_count": "3", "stars": "3.5", "state": "NC"}, {"": "69", "address": "7000 E Mayo Blvd", "business_id": "Q9zcPQit3OMWoNRLLK7MQg", "city": "Phoenix", "latitude": "33.65563", "longitude": "-111.927745", "name": "Chick-fil-A", "postal_code": "85054", "review_count": "75", "stars": "3.5", "state": "AZ"}, {"": "70", "address": "8434 Mentor Ave", "business_id": "ib0cmmBquUJ0xHcsIRQthQ", "city": "Mentor", "latitude": "41.6662419", "longitude": "-81.338769", "name": "Best Western Plus Lawnfield Inn & Suites", "postal_code": "44060", "review_count": "21", "stars": "4.5", "state": "OH"}, {"": "71", "address": "3940 W Desert Inn Rd, Ste U-103", "business_id": "pCSi-ix3ptfczzD-nzzKTg", "city": "Las Vegas", "latitude": "36.1305225", "longitude": "-115.1927057", "name": "Adrenaline Rush Slingshot Rentals", "postal_code": "89102", "review_count": "19", "stars": "5.0", "state": "NV"}, {"": "72", "address": "115 W Mcdowell Rd, Ste 1", "business_id": "pCrhiOxgTjHLzyIj7R1eAw", "city": "Phoenix", "latitude": "33.4655321", "longitude": "-112.0763391", "name": "Harold Studio", "postal_code": "85003", "review_count": "16", "stars": "5.0", "state": "AZ"}, {"": "73", "address": "2168 E Williams Field Rd, Ste 107", "business_id": "4xdHFC1ExTfwqyUX89biqQ", "city": "Gilbert", "latitude": "33.310644", "longitude": "-111.743363", "name": "Amy's Hallmark Shop", "postal_code": "85295", "review_count": "3", "stars": "3.5", "state": "AZ"}, {"": "74", "address": "900 Wigwam Pkwy", "business_id": "jhv0DCeC1drMuH6EiFcg2A", "city": "Henderson", "latitude": "36.0356943", "longitude": "-115.024428", "name": "One Above Range", "postal_code": "89014", "review_count": "6", "stars": "5.0", "state": "NV"}, {"": "75", "address": "4126 E Valley Auto Dr", "business_id": "hDz1yo7wR4vxQbz31d3_Cg", "city": "Mesa", "latitude": "33.3826956", "longitude": "-111.7445616", "name": "AAA Mesa Auto Repair", "postal_code": "85206", "review_count": "20", "stars": "3.5", "state": "AZ"}, {"": "76", "address": "14111 Rivergate Pkwy", "business_id": "_csgqOCUWhaS4KAwm9Rcag", "city": "Charlotte", "latitude": "35.103883", "longitude": "-80.984753", "name": "Chick-fil-A", "postal_code": "28273", "review_count": "46", "stars": "2.5", "state": "NC"}, {"": "77", "address": "6040 N Scottsdale Rd", "business_id": "I9i3z7F0eTOHql3oaVM9oQ", "city": "Scottsdale", "latitude": "33.525433664", "longitude": "-111.926516713", "name": "Residence Inn Scottsdale Paradise Valley", "postal_code": "85253", "review_count": "26", "stars": "4.0", "state": "AZ"}, {"": "78", "address": "450 Matheson Boulevard E, Unit 40", "business_id": "PkkjJA0pK8jBwXw8jRf71w", "city": "Mississauga", "latitude": "43.6260789", "longitude": "-79.6562335", "name": "Fairytale Land", "postal_code": "L4Z 1R5", "review_count": "3", "stars": "3.5", "state": "ON"}, {"": "79", "address": "800 Vinial St", "business_id": "bqW0f0RigwpYyz1lbxhHlw", "city": "Pittsburgh", "latitude": "40.4571416643", "longitude": "-79.9915010041", "name": "Penn Brewery", "postal_code": "15212", "review_count": "201", "stars": "3.5", "state": "PA"}, {"": "80", "address": "125 Roncesvalles Avenue", "business_id": "hYcfFH96k13nUxfrqC0DvQ", "city": "Toronto", "latitude": "43.6427734", "longitude": "-79.4474326", "name": "Willem and Jools Flowers", "postal_code": "M6R 2K9", "review_count": "3", "stars": "3.5", "state": "ON"}, {"": "81", "address": "1140 S Country Club Dr", "business_id": "_9VQUKCkYWHfUTnxbn4O_A", "city": "Mesa", "latitude": "33.3937008292", "longitude": "-111.841277964", "name": "Tom's BBQ", "postal_code": "85210", "review_count": "88", "stars": "3.5", "state": "AZ"}, {"": "82", "address": "2021 S Alma School Rd", "business_id": "ScAnSemhCzGU91LI0XDCRg", "city": "Chandler", "latitude": "33.276018", "longitude": "-111.85846599999999", "name": "Enterprise Rent-A-Car", "postal_code": "85286", "review_count": "35", "stars": "3.0", "state": "AZ"}, {"": "83", "address": "9419 E San Salvador Dr, Ste 106 B", "business_id": "rZgFbB0hkTHZ61yc40Or5w", "city": "Scottsdale", "latitude": "33.570061", "longitude": "-111.877749", "name": "AZ Ride Motorcycle Rentals", "postal_code": "85258", "review_count": "11", "stars": "5.0", "state": "AZ"}, {"": "84", "address": "131 E John St", "business_id": "ERu5CuuGqt072ZViwbsCsg", "city": "Matthews", "latitude": "35.115483", "longitude": "-80.720707", "name": "Domenico's Pizza & Pasta To Go", "postal_code": "28105", "review_count": "4", "stars": "4.5", "state": "NC"}, {"": "85", "address": "", "business_id": "OsLELQOKsAsHwh95sbA5aQ", "city": "Las Vegas", "latitude": "36.2030945", "longitude": "-115.2244853", "name": "McKenna Artistry", "postal_code": "89108", "review_count": "3", "stars": "4.5", "state": "NV"}, {"": "86", "address": "Central Ave And Camelback Rd", "business_id": "4etWlZlrrvBbkTEadjBOKQ", "city": "Phoenix", "latitude": "33.5092914", "longitude": "-112.0738245", "name": "Courtney Sargent Photography", "postal_code": "85013", "review_count": "10", "stars": "4.5", "state": "AZ"}, {"": "87", "address": "6680 Boulevard Taschereau", "business_id": "xVNdvQQFV7pLfHe6xZ41dQ", "city": "Brossard", "latitude": "45.46935", "longitude": "-73.469038", "name": "Quality Inn", "postal_code": "J4W 1M8", "review_count": "4", "stars": "3.0", "state": "QC"}, {"": "88", "address": "10822 Providence Rd, Ste 300", "business_id": "zLRiLXCQAZNeDxy2VLhcaA", "city": "Charlotte", "latitude": "35.0624111", "longitude": "-80.7716169", "name": "Amy's Hallmark Shop", "postal_code": "28277", "review_count": "3", "stars": "3.0", "state": "NC"}, {"": "89", "address": "9000 S Las Vegas Blvd, Ste 2189", "business_id": "etiXHEc6OYEyUTU3orIz6g", "city": "Las Vegas", "latitude": "36.026698", "longitude": "-115.169638", "name": "EMC Las Vegas", "postal_code": "89123", "review_count": "9", "stars": "5.0", "state": "NV"}, {"": "90", "address": "7700 Bathurst Street", "business_id": "OiHjpQPQapnqK2BbLZIgKw", "city": "Thornhill", "latitude": "43.8098502", "longitude": "-79.4515446", "name": "Diamonds Fine Foods", "postal_code": "L4J 7Y3", "review_count": "3", "stars": "4.0", "state": "ON"}, {"": "91", "address": "73 Alness Street, Unit 3", "business_id": "fZtQGuDDuaXW3haN5Aq6fA", "city": "North York", "latitude": "43.774425", "longitude": "-79.472183", "name": "Mess For Fun", "postal_code": "M3J 2H2", "review_count": "3", "stars": "4.0", "state": "ON"}, {"": "92", "address": "6111 S All America Way", "business_id": "cSVmQusncacVHsCHObA1Gg", "city": "Tempe", "latitude": "33.3675869177", "longitude": "-111.936532259", "name": "Kiwanis Recreation Center", "postal_code": "85283", "review_count": "43", "stars": "4.0", "state": "AZ"}, {"": "93", "address": "925 Rathburn Road E", "business_id": "KeQ1cK564cL5C_hBTFrqnA", "city": "Mississauga", "latitude": "43.6160832", "longitude": "-79.6175759", "name": "Desi Bar & Grill", "postal_code": "L4W 4C3", "review_count": "62", "stars": "4.0", "state": "ON"}, {"": "94", "address": "26380 Curtiss Wright Pkwy", "business_id": "Xk05B3MApfGZB-s3vQkuyA", "city": "Cleveland", "latitude": "41.5667157", "longitude": "-81.4914188", "name": "Cleveland Jet Center", "postal_code": "44143", "review_count": "3", "stars": "3.5", "state": "OH"}, {"": "95", "address": "2634 Airport Dr, Ste 103", "business_id": "DzPTtQbiD4x-qJuAVcf49Q", "city": "North Las Vegas", "latitude": "36.2078575342", "longitude": "-115.201133884", "name": "Elite Flight Training & Management", "postal_code": "89032", "review_count": "6", "stars": "3.5", "state": "NV"}, {"": "96", "address": "", "business_id": "MIsy_YcwYFie6pkWcdH3Tw", "city": "Las Vegas", "latitude": "36.0357492", "longitude": "-115.1533426", "name": "IS Photography", "postal_code": "89123", "review_count": "3", "stars": "3.5", "state": "NV"}, {"": "97", "address": "", "business_id": "5dIhVwHKS6mqA0Xogf0r5g", "city": "Chandler", "latitude": "33.3260297", "longitude": "-111.8747445", "name": "Painting with Canvas", "postal_code": "85224", "review_count": "12", "stars": "4.0", "state": "AZ"}, {"": "98", "address": "", "business_id": "JJxSJSIKmnv889TCEaiynA", "city": "Las Vegas", "latitude": "36.1148054", "longitude": "-115.2778317", "name": "Chic Favors & Invitations", "postal_code": "89147", "review_count": "8", "stars": "5.0", "state": "NV"}, {"": "99", "address": "515 E Carefree Hwy", "business_id": "muswJ1rvLErdXvFc4HYRqQ", "city": "Phoenix", "latitude": "33.7983301", "longitude": "-112.0670205", "name": "Amy's Little Plant and Flower", "postal_code": "85085", "review_count": "5", "stars": "4.0", "state": "AZ"}, {"": "100", "address": "6302 E Camelback Rd", "business_id": "Fd7Meh8HrB1T8A4r8k1QWw", "city": "Scottsdale", "latitude": "33.5025159173", "longitude": "-111.945274393", "name": "The Running Water Spa", "postal_code": "85251", "review_count": "9", "stars": "4.0", "state": "AZ"}, {"": "101", "address": "418 Whitewater Way NW", "business_id": "lTidZpUU1ikHfoKctJCanw", "city": "Concord", "latitude": "35.372968", "longitude": "-80.6852059", "name": "Reflections Photography", "postal_code": "28027", "review_count": "3", "stars": "5.0", "state": "NC"}, {"": "102", "address": "3421 E Tropicana Ave, Ste R", "business_id": "_w6ptb6X7YsDiwllNhOMSQ", "city": "Las Vegas", "latitude": "36.0993723", "longitude": "-115.0999935", "name": "Majestic Eyebrow Threading", "postal_code": "89121", "review_count": "102", "stars": "5.0", "state": "NV"}, {"": "103", "address": "437A Yonge Street", "business_id": "fAscHigioH6HC4tPIFYVyA", "city": "Toronto", "latitude": "43.6609178", "longitude": "-79.3825773", "name": "College Currency Investments", "postal_code": "M5B 1T3", "review_count": "24", "stars": "4.0", "state": "ON"}, {"": "104", "address": "4405 W Phalen Dr", "business_id": "F8SQn1GhHZwfgk088AbuyA", "city": "Anthem", "latitude": "33.875997", "longitude": "-112.154384", "name": "CMQ Photos", "postal_code": "85087", "review_count": "6", "stars": "5.0", "state": "AZ"}, {"": "105", "address": "522 E Dunlap Ave", "business_id": "qpGMmQX4AgT12fDdvQLprg", "city": "Phoenix", "latitude": "33.5679787", "longitude": "-112.0663763", "name": "Open Road Tours", "postal_code": "85020", "review_count": "4", "stars": "3.0", "state": "AZ"}, {"": "106", "address": "42-44 Cockburn Street", "business_id": "xNU9Gz21prvZ43ZXrXFvfw", "city": "Edinburgh", "latitude": "55.9504776001", "longitude": "-3.1890370846", "name": "Old Town Context", "postal_code": "EH1 1PB", "review_count": "4", "stars": "5.0", "state": "EDH"}, {"": "107", "address": "6201 Dean Martin Dr", "business_id": "vKYlrQuSymwOveLh9KxNYA", "city": "Las Vegas", "latitude": "36.0765465", "longitude": "-115.1818616", "name": "Bazaar Studios & Beauty Parlor", "postal_code": "89118", "review_count": "21", "stars": "5.0", "state": "NV"}, {"": "108", "address": "7330 Eastgate Rd, Ste 100", "business_id": "nv2z5SYQR0JlzflUrm00Mw", "city": "Henderson", "latitude": "36.054555", "longitude": "-115.019143", "name": "Las Vegas Distillery", "postal_code": "89011", "review_count": "76", "stars": "5.0", "state": "NV"}, {"": "109", "address": "200 N Main St", "business_id": "cISQE8tQ29Q043hmY7LT2g", "city": "Las Vegas", "latitude": "36.1743158", "longitude": "-115.145311", "name": "California Hotel-Casino & R V Park", "postal_code": "89101", "review_count": "3", "stars": "3.0", "state": "NV"}, {"": "110", "address": "", "business_id": "4YDzojuwciknAszCLe5qEA", "city": "Las Vegas", "latitude": "36.175", "longitude": "-115.136389", "name": "The Griffin Mansions", "postal_code": "", "review_count": "5", "stars": "2.0", "state": "NV"}, {"": "111", "address": "538 S Gilbert Rd, Ste 105", "business_id": "lah6H9vPStXQ3-TQyRtDbA", "city": "Gilbert", "latitude": "33.3403959", "longitude": "-111.7909402", "name": "A2Z FLOWERS", "postal_code": "85296", "review_count": "17", "stars": "4.5", "state": "AZ"}, {"": "112", "address": "101 Convention Center Dr, Ste 1225", "business_id": "qPGSU1NFePZ2lpwNtMFXmg", "city": "Las Vegas", "latitude": "36.1318813", "longitude": "-115.1610651", "name": "Infinity Concierge Services", "postal_code": "89109", "review_count": "12", "stars": "3.0", "state": "NV"}, {"": "113", "address": "2 West Lane", "business_id": "PjzIBRm4pxV_mivCZtmZlw", "city": "Whitby", "latitude": "54.4686545", "longitude": "-0.9092471", "name": "Duke Of Wellington", "postal_code": "YO21 2LY", "review_count": "3", "stars": "5.0", "state": "NYK"}, {"": "114", "address": "668 W General Robinson St", "business_id": "lANErA3v8e2VYzMvLzWN7w", "city": "Pittsburgh", "latitude": "40.4476669", "longitude": "-80.0095963", "name": "Alco Parking - West General Robinson Street Garage", "postal_code": "15212", "review_count": "4", "stars": "4.0", "state": "PA"}, {"": "115", "address": "760 College St", "business_id": "EOGH9EJyS_VerDZx3lsjTw", "city": "Toronto", "latitude": "43.655042", "longitude": "-79.419072", "name": "Ivory Parade", "postal_code": "M6G 1C4", "review_count": "6", "stars": "3.5", "state": "ON"}, {"": "116", "address": "1753 Fairhaven St", "business_id": "Iu_uZRVStxL1GuhDXaEJHA", "city": "Las Vegas", "latitude": "36.192719", "longitude": "-115.2082924", "name": "J R Pony Parties", "postal_code": "89108", "review_count": "15", "stars": "5.0", "state": "NV"}, {"": "117", "address": "100 Lakeside Ave E", "business_id": "qGwz_gJIZdRs4vTPcaIg9w", "city": "Cleveland", "latitude": "41.5029404472", "longitude": "-81.6957642138", "name": "Hilton Cleveland Downtown", "postal_code": "44114", "review_count": "61", "stars": "4.0", "state": "OH"}, {"": "118", "address": "40 King St W", "business_id": "i_0rSAui4zaz4ydVaOZ6bQ", "city": "Toronto", "latitude": "43.6493491", "longitude": "-79.3795277", "name": "Marcello's Market & Deli", "postal_code": "M5H 1B6", "review_count": "4", "stars": "3.5", "state": "ON"}, {"": "119", "address": "597 College Street", "business_id": "k9AaulyfonmUlkmI3uMiQQ", "city": "Toronto", "latitude": "43.6551928", "longitude": "-79.4139538", "name": "Capitol Trattoria Pizzeria", "postal_code": "M6G 1B5", "review_count": "25", "stars": "2.5", "state": "ON"}, {"": "120", "address": "101 E University Ave", "business_id": "wYp3Xog0giOX5CFAv1pZtA", "city": "Champaign", "latitude": "40.116032", "longitude": "-88.238533", "name": "Dallas & Co Costumes & Magic", "postal_code": "61820", "review_count": "10", "stars": "4.5", "state": "IL"}, {"": "121", "address": "6675 S Gilespie St", "business_id": "shU97uo3R01v0KLlDnPaCA", "city": "Las Vegas", "latitude": "36.069073", "longitude": "-115.16474", "name": "South Strip Transfer Terminal", "postal_code": "89119", "review_count": "24", "stars": "3.5", "state": "NV"}, {"": "122", "address": "24741 Country Club Blvd", "business_id": "d6CPd6Rg__Hw-5ArLQ_k4Q", "city": "North Olmsted", "latitude": "41.4156227", "longitude": "-81.8958655", "name": "Candlewood Suites Cleveland-N. Olmsted", "postal_code": "44070", "review_count": "12", "stars": "3.5", "state": "OH"}, {"": "123", "address": "9484 W Lake Mead Blvd, # 1", "business_id": "GdHMZn1gEeVvz5-4u5TTug", "city": "Las Vegas", "latitude": "36.206381", "longitude": "-115.303005", "name": "Enterprise Rent-A-Car", "postal_code": "89134", "review_count": "35", "stars": "3.5", "state": "NV"}, {"": "124", "address": "1609 Elizabeth Ave", "business_id": "ObcMSGc1uotvpnwydoStIg", "city": "Charlotte", "latitude": "35.213641", "longitude": "-80.826168", "name": "Earl's Grocery", "postal_code": "28204", "review_count": "152", "stars": "4.5", "state": "NC"}, {"": "125", "address": "", "business_id": "DG3u0rKDyakqJjsMjcCsKA", "city": "Scottsdale", "latitude": "33.5243639", "longitude": "-111.8985922", "name": "Frances Cecilia Photography", "postal_code": "85250", "review_count": "3", "stars": "3.5", "state": "AZ"}, {"": "126", "address": "171 Rue Saint-Paul O", "business_id": "D6KnuKoGKNHvlw8OIfGmwQ", "city": "Montr\u00c3\u00a9al", "latitude": "45.503112371", "longitude": "-73.5551566781", "name": "H\u00c3\u00b4tel \u00c3\u2030pik", "postal_code": "H2Y 1Z5", "review_count": "9", "stars": "4.5", "state": "QC"}, {"": "127", "address": "Freight House Shops, 125 W Station Square Dr", "business_id": "OGARoKckCz_DUk6A8aEtzw", "city": "Pittsburgh", "latitude": "40.433155", "longitude": "-80.004535", "name": "Zen Social Club", "postal_code": "15219", "review_count": "9", "stars": "2.5", "state": "PA"}, {"": "128", "address": "Mgm Grand", "business_id": "LAnCX5Z6xG40KEpPtpWeEQ", "city": "Las Vegas", "latitude": "36.1020655741", "longitude": "-115.170864368", "name": "Mgm Grand Skyline Terrace Suite", "postal_code": "89109", "review_count": "6", "stars": "3.0", "state": "NV"}, {"": "129", "address": "699 Howe Ave", "business_id": "TG6bz3o1vEjVcedBtFQ2yw", "city": "Cuyahoga Falls", "latitude": "41.119507", "longitude": "-81.4742246", "name": "Boston Market", "postal_code": "44221", "review_count": "6", "stars": "3.0", "state": "OH"}, {"": "130", "address": "8212 Greenway Blvd", "business_id": "xrHoOaeiZNWshu2xUzT2QQ", "city": "Middleton", "latitude": "43.0907257905", "longitude": "-89.5229932666", "name": "Fairfield Inn & Suites by Marriott Madison West/Middleton", "postal_code": "53562", "review_count": "17", "stars": "3.5", "state": "WI"}, {"": "131", "address": "136 E 36th St", "business_id": "RF2ufigv1wgpRFylvhREzA", "city": "Charlotte", "latitude": "35.251556", "longitude": "-80.807905", "name": "Hart Witzen", "postal_code": "28206", "review_count": "6", "stars": "4.0", "state": "NC"}, {"": "132", "address": "", "business_id": "1hrX1vHaUgllWH6i876oAw", "city": "Phoenix", "latitude": "33.4499672", "longitude": "-112.0702225", "name": "Mariachi Estrellas Del Pac\u00c3\u00adfico", "postal_code": "85001", "review_count": "4", "stars": "5.0", "state": "AZ"}, {"": "133", "address": "1525 Bloor Street W", "business_id": "ukyKtxoBC2E7CWlhp6Eamw", "city": "Toronto", "latitude": "43.6569621555", "longitude": "-79.4528862834", "name": "Dundas West Station", "postal_code": "M6P 1A3", "review_count": "5", "stars": "3.5", "state": "ON"}, {"": "134", "address": "730 N Mill Ave", "business_id": "7Ekosm-PP79a9Rrwyc6ehw", "city": "Tempe", "latitude": "33.4369709", "longitude": "-111.9439813", "name": "Puzzling Adventures", "postal_code": "85281", "review_count": "3", "stars": "5.0", "state": "AZ"}, {"": "135", "address": "300 Cowgate", "business_id": "yOGBiKBzNHF2MFH3VpMBgA", "city": "Edinburgh", "latitude": "55.9489686", "longitude": "-3.1844236", "name": "Holiday Inn Express Hotel Edinburgh-Royal Mile", "postal_code": "EH1 1NA", "review_count": "5", "stars": "4.0", "state": "EDH"}, {"": "136", "address": "6343 E Southern Ave", "business_id": "sRrtKP5PIZsU2pXjFa2yuA", "city": "Mesa", "latitude": "33.3917314", "longitude": "-111.6938105", "name": "Avis Rent A Car", "postal_code": "85206", "review_count": "5", "stars": "2.5", "state": "AZ"}, {"": "137", "address": "1860 Remount Rd", "business_id": "J3-aXlcSCkONb_ccRpWE2g", "city": "Gastonia", "latitude": "35.2705171", "longitude": "-81.1459207", "name": "Fairfield Inn Charlotte Gastonia", "postal_code": "28054", "review_count": "16", "stars": "3.0", "state": "NC"}, {"": "138", "address": "2640 E Indian School Rd", "business_id": "atL0frtkSbeEV0NaB6y3nw", "city": "Phoenix", "latitude": "33.4955588", "longitude": "-112.0241035", "name": "Budget Rent A Car", "postal_code": "85016", "review_count": "16", "stars": "3.5", "state": "AZ"}, {"": "139", "address": "610 Bay St", "business_id": "UKpmaMZU_sKevo9AlaMPkA", "city": "Toronto", "latitude": "43.6561507", "longitude": "-79.3842642", "name": "Greyhound Bus Lines", "postal_code": "M5G 1M5", "review_count": "49", "stars": "2.0", "state": "ON"}, {"": "140", "address": "743 Pape Avenue", "business_id": "wXtE0iV1m6OCr-dOCfvF6Q", "city": "Toronto", "latitude": "43.6799984089", "longitude": "-79.3447146165", "name": "Pape Subway Station", "postal_code": "M4K 3T1", "review_count": "8", "stars": "3.5", "state": "ON"}, {"": "141", "address": "2-20 College Street", "business_id": "kQGJ5QUJ0BAIpmYYtf7Uqw", "city": "Toronto", "latitude": "43.6614505", "longitude": "-79.384068", "name": "Upper Deck By Fran's", "postal_code": "M5G 1K2", "review_count": "25", "stars": "3.0", "state": "ON"}, {"": "142", "address": "444 Yonge Street", "business_id": "X184O0qgC5MKvePbsSe-nA", "city": "Toronto", "latitude": "43.6610059", "longitude": "-79.383213", "name": "Sushi On the Run", "postal_code": "M5B 2H4", "review_count": "19", "stars": "3.5", "state": "ON"}, {"": "143", "address": "3700 Boulder Hwy", "business_id": "T7DnoRSnL-tVCR1Xw7nxiQ", "city": "Las Vegas", "latitude": "36.138404", "longitude": "-115.094792", "name": "Johnnie Walker RV", "postal_code": "89121", "review_count": "37", "stars": "4.0", "state": "NV"}, {"": "144", "address": "4801 Harrison Dr", "business_id": "8CgT3zwpuoANesnuJCqw2g", "city": "Las Vegas", "latitude": "36.1023748", "longitude": "-115.1130757", "name": "Matt Cali Photography", "postal_code": "89121", "review_count": "9", "stars": "5.0", "state": "NV"}, {"": "145", "address": "525 W Lynwood St", "business_id": "iq6qT0F94hmx2toFK6Kqlw", "city": "Phoenix", "latitude": "33.464544", "longitude": "-112.0819331", "name": "The Felch House", "postal_code": "85003", "review_count": "4", "stars": "4.0", "state": "AZ"}, {"": "146", "address": "183 Front Street E", "business_id": "YCoLBgh973QSp-OmnwMWSg", "city": "Toronto", "latitude": "43.6504571", "longitude": "-79.3674974", "name": "Downtown Acura", "postal_code": "M5A 1E7", "review_count": "5", "stars": "2.5", "state": "ON"}, {"": "147", "address": "3901 N Rancho Dr", "business_id": "kviNaI_LfaR1i1bcr3H_4Q", "city": "Las Vegas", "latitude": "36.2283722", "longitude": "-115.2235265", "name": "Crystal Palace Skating Centers", "postal_code": "89130", "review_count": "70", "stars": "3.0", "state": "NV"}, {"": "148", "address": "", "business_id": "_PHPpeC_amcmKCNNZzvmkg", "city": "Phoenix", "latitude": "33.4491896785", "longitude": "-112.077202012", "name": "George Street Photo & Video", "postal_code": "85003", "review_count": "4", "stars": "4.0", "state": "AZ"}, {"": "149", "address": "6020 Jefferson Dr", "business_id": "6oZoFYdbvwqyk4gnkzJnqA", "city": "Independence", "latitude": "41.3989240195", "longitude": "-81.6500173102", "name": "Hampton Inn", "postal_code": "44131", "review_count": "18", "stars": "3.5", "state": "OH"}, {"": "150", "address": "", "business_id": "MmT-eurMIgyzwaukQ1Lf3Q", "city": "Las Vegas", "latitude": "36.1165487", "longitude": "-115.0881146", "name": "New Romantix", "postal_code": "89121", "review_count": "21", "stars": "5.0", "state": "NV"}, {"": "151", "address": "", "business_id": "227GSfD4omYW1qE8ATFs1g", "city": "Henderson", "latitude": "35.9208835", "longitude": "-115.1652008", "name": "A Magical Day, Princess Parties & More", "postal_code": "89044", "review_count": "7", "stars": "5.0", "state": "NV"}, {"": "152", "address": "4975 S Fort Apache, Ste 101", "business_id": "0zgu-ktM767MGgo8DN20-w", "city": "Las Vegas", "latitude": "36.0983226", "longitude": "-115.2991001", "name": "Kids Kingdom", "postal_code": "89148", "review_count": "54", "stars": "4.0", "state": "NV"}, {"": "153", "address": "3799 S Las Vegas Blvd", "business_id": "71aOEuRuypjW4tqmTr4A3g", "city": "Las Vegas", "latitude": "36.1033743", "longitude": "-115.1693962", "name": "Dollar Rent A Car", "postal_code": "89119", "review_count": "8", "stars": "1.5", "state": "NV"}, {"": "154", "address": "420 N Ridge Rd W", "business_id": "Z_fMYt6Ujc3A1_JAJEl3MQ", "city": "Lorain", "latitude": "41.42662", "longitude": "-82.169599", "name": "Off Broadway Floral and Gifts", "postal_code": "44053", "review_count": "6", "stars": "5.0", "state": "OH"}, {"": "155", "address": "1431 Bryant St", "business_id": "EKeoVnk8s-vPjr-aO5sdZg", "city": "Charlotte", "latitude": "35.2275238037", "longitude": "-80.8658828735", "name": "Uptown Catering Company", "postal_code": "28208", "review_count": "3", "stars": "5.0", "state": "NC"}, {"": "156", "address": "23200 Chagrin Blvd, Ste 4", "business_id": "f7LQwNbiDmcmWQSW54ReTA", "city": "Beachwood", "latitude": "41.4644891", "longitude": "-81.5159713", "name": "California Salads & Catering", "postal_code": "44122", "review_count": "3", "stars": "2.5", "state": "OH"}, {"": "157", "address": "10677 N Scottsdale Rd", "business_id": "XnpVU1tVE6L-wOZtTXzLBw", "city": "Scottsdale", "latitude": "33.5833226", "longitude": "-111.9259", "name": "Amy's Hallmark Shop", "postal_code": "85254", "review_count": "3", "stars": "3.0", "state": "AZ"}, {"": "158", "address": "10115 S Valley View Blvd", "business_id": "eY-_RreNyZCU3rZ5hwEuhw", "city": "Las Vegas", "latitude": "36.005251", "longitude": "-115.190382", "name": "United Car Service", "postal_code": "89141", "review_count": "23", "stars": "4.0", "state": "NV"}, {"": "159", "address": "", "business_id": "qgGgZRAtd-bft9SVpfSTFA", "city": "Las Vegas", "latitude": "36.1688429", "longitude": "-115.076436", "name": "Creaytive Photo", "postal_code": "89110", "review_count": "3", "stars": "5.0", "state": "NV"}, {"": "160", "address": "", "business_id": "EsavKbM2kC8A7_2G5LQQwg", "city": "Toronto", "latitude": "43.653226", "longitude": "-79.3831843", "name": "Safeway Tours", "postal_code": "", "review_count": "26", "stars": "2.5", "state": "ON"}, {"": "161", "address": "Chelsea Hotel, 33 Gerrard Street W", "business_id": "RJMblVTTzmEefL8Cge_TrQ", "city": "Toronto", "latitude": "43.658428", "longitude": "-79.3831689", "name": "T|Bar", "postal_code": "M5G 1Z4", "review_count": "10", "stars": "3.5", "state": "ON"}, {"": "162", "address": "8031 Arrowridge Blvd", "business_id": "y_9Nu0uJ-VgRbGZf_6g49w", "city": "Charlotte", "latitude": "35.134436", "longitude": "-80.908506", "name": "Waiter's Choice Catering", "postal_code": "28273", "review_count": "6", "stars": "5.0", "state": "NC"}, {"": "163", "address": "10806 N 71st Pl, Ste A", "business_id": "hQVHk7XXF7yYolllQJccLg", "city": "Scottsdale", "latitude": "33.584545788", "longitude": "-111.927872077", "name": "North Scottsdale Floral", "postal_code": "85254", "review_count": "25", "stars": "5.0", "state": "AZ"}, {"": "164", "address": "7191 Yonge Street, Suite 1201", "business_id": "V9THpMJoHCgwuJY1Elj_zw", "city": "Markham", "latitude": "43.8033955343", "longitude": "-79.4209720376", "name": "Liberty Suites", "postal_code": "L3T 0C4", "review_count": "17", "stars": "3.5", "state": "ON"}, {"": "165", "address": "", "business_id": "liV3Ka7IdUVvPC92wjUrUw", "city": "Phoenix", "latitude": "33.4962205", "longitude": "-111.9641728", "name": "Phoenix Wine Parties", "postal_code": "85018", "review_count": "3", "stars": "5.0", "state": "AZ"}, {"": "166", "address": "969 Coxwell Avenue", "business_id": "kKNauD7d3HOvumRV7JIAfg", "city": "Toronto", "latitude": "43.6962242", "longitude": "-79.3288728", "name": "Knuckle Sandwich", "postal_code": "M4C 3G4", "review_count": "68", "stars": "4.0", "state": "ON"}, {"": "167", "address": "4136 Henri Julien", "business_id": "Fa3Orq8j4UoHSiu-ykwOlQ", "city": "Montr\u00c3\u00a9al", "latitude": "45.5203172", "longitude": "-73.578344", "name": "Auberge Chez Jean", "postal_code": "H2W 2K3", "review_count": "5", "stars": "2.5", "state": "QC"}, {"": "168", "address": "12221 W Bell Rd", "business_id": "5Kz2xbHJ0QZWrO9AD3mdKA", "city": "Surprise", "latitude": "33.638616999999996", "longitude": "-112.323357", "name": "The Lodge At Sun Ridge", "postal_code": "85378", "review_count": "3", "stars": "4.0", "state": "AZ"}, {"": "169", "address": "", "business_id": "hPi6bqBfEwOpcchP9NgMPg", "city": "Phoenix", "latitude": "33.5669912", "longitude": "-111.8985922", "name": "Hey, Bartender!", "postal_code": "85258", "review_count": "22", "stars": "4.5", "state": "AZ"}, {"": "170", "address": "375 Lewis Ave", "business_id": "UEuvtQTKNS0w53oJTrwS2Q", "city": "Las Vegas", "latitude": "36.1665965", "longitude": "-115.1442241", "name": "Sin City Sandwich", "postal_code": "89101", "review_count": "48", "stars": "4.5", "state": "NV"}, {"": "171", "address": "9705 Leitner Dr", "business_id": "25Qrw76juedI3ClzSEDjhg", "city": "Pineville", "latitude": "35.0884921031", "longitude": "-80.8807880018", "name": "Four Points by Sheraton Charlotte - Pineville", "postal_code": "28134", "review_count": "14", "stars": "3.5", "state": "NC"}, {"": "172", "address": "190 Princes Blvd, CNE Grounds", "business_id": "Lfd6Ogj2uizqma2t4j0H8A", "city": "Toronto", "latitude": "43.6327076", "longitude": "-79.4213438", "name": "Queen Elizabeth Theatre", "postal_code": "M6K 3C3", "review_count": "19", "stars": "4.0", "state": "ON"}, {"": "173", "address": "3005 University Ave", "business_id": "tORH_LDga3t1bbuluhuxiQ", "city": "Madison", "latitude": "43.074981", "longitude": "-89.4417357", "name": "Smoky's Club", "postal_code": "53705", "review_count": "70", "stars": "3.0", "state": "WI"}, {"": "174", "address": "621 S Tonopah Dr", "business_id": "eNtb45z69XiH9P4ZJ8xWwg", "city": "Las Vegas", "latitude": "36.163552", "longitude": "-115.169555", "name": "Wolfson Lofts Hotel", "postal_code": "89106", "review_count": "3", "stars": "1.0", "state": "NV"}, {"": "175", "address": "180 Consumers Drive", "business_id": "-4mgAuWdtcXNkJ2yRWwHzw", "city": "Whitby", "latitude": "43.868448", "longitude": "-78.9322274", "name": "Holiday Inn Express Whitby Oshawa", "postal_code": "L1N 9S3", "review_count": "4", "stars": "1.5", "state": "ON"}, {"": "176", "address": "9100 Jane Street", "business_id": "r38xMabrCDVLhkkiVKBtSQ", "city": "Vaughan", "latitude": "43.828576802", "longitude": "-79.5349471307", "name": "Vinnie Zucchini's Italian Eatery", "postal_code": "L4K 0A4", "review_count": "45", "stars": "2.0", "state": "ON"}, {"": "177", "address": "96 Richmond Street W", "business_id": "gzomja0V-gAHJckvwwwFCQ", "city": "Toronto", "latitude": "43.6510886", "longitude": "-79.3829192", "name": "Shopsy's Deli & Restaurants", "postal_code": "M5H 2A3", "review_count": "24", "stars": "3.0", "state": "ON"}, {"": "178", "address": "4124 Main St", "business_id": "dHiq1JliKgh_3z-KnTpCaA", "city": "Pittsburgh", "latitude": "40.4649486", "longitude": "-79.9544552", "name": "Roxanne's Catering", "postal_code": "15224", "review_count": "3", "stars": "4.0", "state": "PA"}, {"": "179", "address": "5115 Nations Ford Rd", "business_id": "7joOT_1CabyjtJh7AIHjyA", "city": "Charlotte", "latitude": "35.177991", "longitude": "-80.891056", "name": "Enterprise Rent-A-Car", "postal_code": "28217", "review_count": "4", "stars": "4.0", "state": "NC"}, {"": "180", "address": "6750 Mississauga Road", "business_id": "mm13IH8skh8Sjx8SCJrwEg", "city": "Mississauga", "latitude": "43.6010837", "longitude": "-79.7427268", "name": "Hilton Mississauga/Meadowvale", "postal_code": "L5N 2L3", "review_count": "10", "stars": "3.5", "state": "ON"}, {"": "181", "address": "3770 Las Vegas Blvd S", "business_id": "5iSmZO0SrKU6EoXK_1M8Kw", "city": "Las Vegas", "latitude": "36.104614", "longitude": "-115.176021", "name": "Monte Carlo Hotel And Casino", "postal_code": "89109", "review_count": "2507", "stars": "2.5", "state": "NV"}, {"": "182", "address": "", "business_id": "WmdWTmAYNVpxt5L90jzSLg", "city": "Henderson", "latitude": "35.952556", "longitude": "-115.0228736", "name": "LEE PAPA", "postal_code": "89052", "review_count": "3", "stars": "5.0", "state": "NV"}, {"": "183", "address": "2437 Rue Allard", "business_id": "iCRZZLIo6nTXkNBNcMXeaw", "city": "Montr\u00c3\u00a9al", "latitude": "45.4511433", "longitude": "-73.5940848", "name": "Gourmet Aldo", "postal_code": "H4E 2L3", "review_count": "4", "stars": "4.0", "state": "QC"}, {"": "184", "address": "7 E Southern Ave", "business_id": "SthY47psfibKfJNjS43AfA", "city": "Mesa", "latitude": "33.3925802", "longitude": "-111.8308185", "name": "USA's Skateland Mesa", "postal_code": "85210", "review_count": "38", "stars": "3.5", "state": "AZ"}, {"": "185", "address": "5100 Paradise Rd", "business_id": "4HudfLgcMH5WRD68MhvMAw", "city": "Las Vegas", "latitude": "36.096837", "longitude": "-115.147934", "name": "Airport Rent A Car", "postal_code": "89119", "review_count": "10", "stars": "2.0", "state": "NV"}, {"": "186", "address": "2540 N 35th Ave, Ste 2", "business_id": "dbXBd0qjy7Fnvn5FDNsVow", "city": "Phoenix", "latitude": "33.4765350464", "longitude": "-112.134801842", "name": "Importaciones Valentinas", "postal_code": "85009", "review_count": "4", "stars": "4.0", "state": "AZ"}, {"": "187", "address": "1215 N Scottsdale Rd", "business_id": "Lb5Ngb_886RfqYgndtrn1Q", "city": "Tempe", "latitude": "33.442706", "longitude": "-111.92619", "name": "Fun Time Rentals", "postal_code": "85281", "review_count": "4", "stars": "5.0", "state": "AZ"}, {"": "188", "address": "1601 Lovedale Rd", "business_id": "KNpcPGqDORDdvtekXd348w", "city": "Elizabeth", "latitude": "40.285064", "longitude": "-79.8423904", "name": "Carriage Inn Restaurant and Catering", "postal_code": "15037", "review_count": "16", "stars": "3.5", "state": "PA"}, {"": "189", "address": "2935 Providence Rd, Ste 206", "business_id": "mYxJBFWPCrvF6BIFmJK_7A", "city": "Charlotte", "latitude": "35.171127", "longitude": "-80.807119", "name": "The Little Gym", "postal_code": "28211", "review_count": "5", "stars": "5.0", "state": "NC"}, {"": "190", "address": "1807 Golden Mile Hwy-Route 286", "business_id": "82_4u3Toy7vB8imnJ-cCnQ", "city": "Pittsburgh", "latitude": "40.446474136", "longitude": "-79.715373561", "name": "Super 8 Pittsburgh/Monroeville", "postal_code": "15239", "review_count": "6", "stars": "2.5", "state": "PA"}, {"": "191", "address": "10 Via Renzo Drive", "business_id": "vd1LX9iJ1vAQgdETC6EiQg", "city": "Richmond Hill", "latitude": "43.890647799999996", "longitude": "-79.3929671", "name": "Cosmo Music", "postal_code": "L4S 0B6", "review_count": "25", "stars": "4.0", "state": "ON"}, {"": "192", "address": "1740 Flat River Dr", "business_id": "Ij9cL1cnKJphNs9bQnKWKw", "city": "Charlotte", "latitude": "35.3172115", "longitude": "-80.7730238", "name": "AAA - W T Harris Blvd", "postal_code": "28262", "review_count": "19", "stars": "3.5", "state": "NC"}, {"": "193", "address": "3603 E Indian School Rd, Ste A", "business_id": "m8qJtl3l6QXJMnNxN6LQRQ", "city": "Phoenix", "latitude": "33.4951613", "longitude": "-112.0041452", "name": "Jennifer's Catering & Events", "postal_code": "85018", "review_count": "9", "stars": "3.5", "state": "AZ"}, {"": "194", "address": "17458 Lorain Ave", "business_id": "mjdRpXM1U8hg7gns3cH2iA", "city": "Cleveland", "latitude": "41.451617", "longitude": "-81.818856", "name": "Al Wilhelmy Flowers", "postal_code": "44111", "review_count": "7", "stars": "5.0", "state": "OH"}, {"": "195", "address": "Melville Castle", "business_id": "NA4PCAGkDl90BmLQnVeS-A", "city": "Lasswade", "latitude": "55.8944643", "longitude": "-3.091901", "name": "Melville Castle Hotel", "postal_code": "EH18 1AP", "review_count": "7", "stars": "2.5", "state": "MLN"}, {"": "196", "address": "1335 E. Sunset Road", "business_id": "NUdOK9agiop9qf4yic5BXw", "city": "Las Vegas", "latitude": "36.0712448", "longitude": "-115.1357128", "name": "Silvercar", "postal_code": "89119", "review_count": "23", "stars": "3.5", "state": "NV"}, {"": "197", "address": "15 Laidlaw Blvd", "business_id": "oTuz4oOnbIc2dPnjgBWTgA", "city": "Markham", "latitude": "43.8720504", "longitude": "-79.2777548", "name": "Discount Car and Truck Rental", "postal_code": "L3P 7N1", "review_count": "3", "stars": "3.5", "state": "ON"}, {"": "198", "address": "2023 Williams Pkwy", "business_id": "r5V3cGrvhrPRXuvASQ100Q", "city": "Brampton", "latitude": "43.757289", "longitude": "-79.702815", "name": "LPM Production", "postal_code": "L6S 5N1", "review_count": "3", "stars": "2.5", "state": "ON"}, {"": "199", "address": "1940 E Main St", "business_id": "Ar3cyj6p8bXN-J8ZhvFSUA", "city": "Mesa", "latitude": "33.4168998625", "longitude": "-111.789742637", "name": "Garden Tuscana", "postal_code": "85203", "review_count": "4", "stars": "4.0", "state": "AZ"}, {"": "200", "address": "3030 Don Mills Road", "business_id": "37oAPnVF_mXRz_O7Z0uQjA", "city": "Toronto", "latitude": "43.785711", "longitude": "-79.352025", "name": "The Moment Photography", "postal_code": "M2J 3B6", "review_count": "3", "stars": "4.5", "state": "ON"}, {"": "201", "address": "911 South 48th St", "business_id": "MygS9ui24_aBuz-1CbG1pQ", "city": "Tempe", "latitude": "33.4200466", "longitude": "-111.9766808", "name": "La Quinta Inn Phoenix Sky Harbor Airport", "postal_code": "85281", "review_count": "48", "stars": "3.0", "state": "AZ"}, {"": "202", "address": "1356 County Rd 2900 N", "business_id": "XwhDBNra9t3lgk1JdYlUOQ", "city": "Rantoul", "latitude": "40.2977909", "longitude": "-88.2022999", "name": "Hardy's Reindeer Ranch", "postal_code": "61866", "review_count": "15", "stars": "3.5", "state": "IL"}, {"": "203", "address": "5740 Center Rd", "business_id": "hrdKRLtpwBt-FiC5fJQxEg", "city": "Valley City", "latitude": "41.2368626", "longitude": "-81.8929545", "name": "Coppertop at Cherokee Hills Dining", "postal_code": "44280", "review_count": "8", "stars": "3.0", "state": "OH"}, {"": "204", "address": "", "business_id": "37CcgmovAhRkdOAvnp_tCw", "city": "Las Vegas", "latitude": "36.1453333", "longitude": "-115.2778317", "name": "Charm Transportation", "postal_code": "89117", "review_count": "3", "stars": "5.0", "state": "NV"}, {"": "205", "address": "927 W Diamond Dr", "business_id": "TAqB1YisaKBCkT3F9rAC6A", "city": "Tempe", "latitude": "33.356613", "longitude": "-111.954494", "name": "Julius Photography", "postal_code": "85283", "review_count": "5", "stars": "5.0", "state": "AZ"}, {"": "206", "address": "Schockenriedstr. 50", "business_id": "Frv77cDSDo78OzSDITZfGg", "city": "Stuttgart", "latitude": "48.725074", "longitude": "9.129198", "name": "SSB", "postal_code": "70565", "review_count": "8", "stars": "4.0", "state": "BW"}, {"": "207", "address": "", "business_id": "XZGzFM0iUQ8eYf_ohaQE-g", "city": "Mint Hill", "latitude": "35.1825962", "longitude": "-80.6548882", "name": "Abbey Rose Floral Artistry", "postal_code": "28227", "review_count": "4", "stars": "5.0", "state": "NC"}, {"": "208", "address": "3120 W Carefree Hwy", "business_id": "bXeD2SrlUOeGceXrBEwRmw", "city": "Phoenix", "latitude": "33.7998246", "longitude": "-112.1262549", "name": "Nightlife Limousine", "postal_code": "85086", "review_count": "3", "stars": "5.0", "state": "AZ"}, {"": "209", "address": "307 E 1st St", "business_id": "u28wdn24EcagumXJoUR4fw", "city": "Mesa", "latitude": "33.4168381", "longitude": "-111.8232042", "name": "Antique Wedding House", "postal_code": "85201", "review_count": "27", "stars": "3.5", "state": "AZ"}, {"": "210", "address": "600 Grant St", "business_id": "9_1N2SoNoS3DGV9V-4kndw", "city": "Pittsburgh", "latitude": "40.441355", "longitude": "-79.994853", "name": "Craftwork Kitchen", "postal_code": "15219", "review_count": "23", "stars": "4.0", "state": "PA"}, {"": "211", "address": "33 William Street", "business_id": "4UIsN3GpiPsL5vZxUMKsHg", "city": "Edinburgh", "latitude": "55.9488038979", "longitude": "-3.2137262821", "name": "Laura's Kitchen", "postal_code": "EH3 7LW", "review_count": "14", "stars": "4.5", "state": "EDH"}, {"": "212", "address": "3355 S Las Vegas Blvd", "business_id": "148d7J-cFejkhYV89y3Jsg", "city": "Las Vegas", "latitude": "36.1214517", "longitude": "-115.1696112", "name": "Gondola Ride at the Venetian", "postal_code": "89109", "review_count": "257", "stars": "3.5", "state": "NV"}, {"": "213", "address": "5075 S Priest Dr", "business_id": "_zk9LLHk3QUEfaiLL_VfGQ", "city": "Tempe", "latitude": "33.379281", "longitude": "-111.9626484", "name": "Residence Inn", "postal_code": "85282", "review_count": "17", "stars": "3.5", "state": "AZ"}, {"": "214", "address": "13840 Ballantyne Corporate Pl, Ste 175", "business_id": "iAtCgs1XXPeHVrftHOv1dQ", "city": "Charlotte", "latitude": "35.0627954", "longitude": "-80.8549521", "name": "On the Green Deli & Catering", "postal_code": "28277", "review_count": "8", "stars": "3.0", "state": "NC"}, {"": "215", "address": "52 Bodrington Court", "business_id": "Z5yKM3_FnbIUb11aitCYaw", "city": "Markham", "latitude": "43.8429568041", "longitude": "-79.35553886", "name": "Hampton Inn and Suites", "postal_code": "L6G", "review_count": "12", "stars": "4.0", "state": "ON"}, {"": "216", "address": "2095 W 15th St", "business_id": "FaFOqx1q26kMSzUlgrYp0Q", "city": "Tempe", "latitude": "33.411934", "longitude": "-111.97086", "name": "Heidi's Events and Catering", "postal_code": "85281", "review_count": "49", "stars": "4.0", "state": "AZ"}, {"": "217", "address": "10740 N 90th St", "business_id": "-VruCC0mPOyZXW1MfQLkQA", "city": "Scottsdale", "latitude": "33.5840017", "longitude": "-111.8866007", "name": "TownePlace Suites Scottsdale", "postal_code": "85260", "review_count": "29", "stars": "3.5", "state": "AZ"}, {"": "218", "address": "2104 E Carson St", "business_id": "WKlMFUCGI7dCysGkFLWvaQ", "city": "Pittsburgh", "latitude": "40.4282783", "longitude": "-79.9760041", "name": "Stagioni", "postal_code": "15203", "review_count": "108", "stars": "4.0", "state": "PA"}, {"": "219", "address": "", "business_id": "HGsEZNa3oBMBedvAlYL1Xg", "city": "Phoenix", "latitude": "33.4528292", "longitude": "-112.0685027", "name": "cityHUNT", "postal_code": "85004", "review_count": "17", "stars": "5.0", "state": "AZ"}, {"": "220", "address": "10325 Nu Wav Kaiv Blvd", "business_id": "oyluXrwjEp0EUIKJguGmDA", "city": "Las Vegas", "latitude": "36.35766", "longitude": "-115.3214946", "name": "Las Vegas Paiute Golf Resort", "postal_code": "89124", "review_count": "87", "stars": "4.0", "state": "NV"}, {"": "221", "address": "7701 N 38th Dr", "business_id": "TmH8aDXorJ9I5FFi90nKGw", "city": "Phoenix", "latitude": "33.5496", "longitude": "-112.141169", "name": "A Better Party", "postal_code": "85051", "review_count": "9", "stars": "4.5", "state": "AZ"}, {"": "222", "address": "370 Main Street N", "business_id": "CPPK3C-kxA9dpKJjLpSgvg", "city": "Brampton", "latitude": "43.6959259", "longitude": "-79.771056", "name": "Domino's Pizza", "postal_code": "L6V 4A4", "review_count": "6", "stars": "3.5", "state": "ON"}, {"": "223", "address": "51 E Main St", "business_id": "400LXhwJuQwYKLknZ3fgJQ", "city": "Champaign", "latitude": "40.1177536", "longitude": "-88.2408818", "name": "The Accord", "postal_code": "61820", "review_count": "14", "stars": "3.5", "state": "IL"}, {"": "224", "address": "1813 Matthews Township Pkwy Ste 100, Ste 100", "business_id": "s96yrBZbI2vgcTClCWoijQ", "city": "Matthews", "latitude": "35.125179", "longitude": "-80.710001", "name": "Jansen's Hallmark Shop", "postal_code": "28105", "review_count": "3", "stars": "3.5", "state": "NC"}, {"": "225", "address": "1050 W Warm Springs Rd", "business_id": "pkscmWKfr5ad6L1M6Jn9eA", "city": "Henderson", "latitude": "36.057478", "longitude": "-115.032428", "name": "Enterprise Rent-A-Car", "postal_code": "89014", "review_count": "83", "stars": "3.5", "state": "NV"}, {"": "226", "address": "136 E 36th St", "business_id": "bgvQI31gbK0uieMi_Vo5kA", "city": "Charlotte", "latitude": "35.251556", "longitude": "-80.807905", "name": "At The Heels Weddings & Events", "postal_code": "28206", "review_count": "3", "stars": "3.5", "state": "NC"}, {"": "227", "address": "651 Huron Rd E", "business_id": "S1I7r5YvxcrTASv_t7cxAA", "city": "Cleveland", "latitude": "41.49798", "longitude": "-81.6875522", "name": "Radisson Hotel Cleveland-Gateway", "postal_code": "44115", "review_count": "47", "stars": "2.5", "state": "OH"}, {"": "228", "address": "", "business_id": "W7clscOkxnPpSyNkKQiA7A", "city": "Gilbert", "latitude": "33.350097", "longitude": "-111.755696", "name": "Jessica Bashaw Photography", "postal_code": "85234", "review_count": "6", "stars": "5.0", "state": "AZ"}, {"": "229", "address": "3730 Las Vegas Blvd", "business_id": "K3IPyNk02ZbcYnvYmKpxZQ", "city": "Las Vegas", "latitude": "36.107635", "longitude": "-115.176722", "name": "The Wedding Chapel", "postal_code": "89109", "review_count": "18", "stars": "4.0", "state": "NV"}, {"": "230", "address": "", "business_id": "iGF8ZrVzJfCKILxsWxKmcQ", "city": "Chandler", "latitude": "33.3063039656", "longitude": "-111.8412502", "name": "Amanda Ashley Photography", "postal_code": "", "review_count": "6", "stars": "5.0", "state": "AZ"}, {"": "231", "address": "633 N Decatur Blvd", "business_id": "upBVCVmIEi7H-JD8OU_gxw", "city": "Las Vegas", "latitude": "36.1798613", "longitude": "-115.206414", "name": "At Your Service Catering", "postal_code": "89107", "review_count": "3", "stars": "4.5", "state": "NV"}, {"": "232", "address": "1075 Queensway E", "business_id": "yWV8lNNIzzGmjKRr-XsWYg", "city": "Mississauga", "latitude": "43.5968468", "longitude": "-79.5826915", "name": "Le Tr\u00c3\u00a9port Wedding & Convention Centre", "postal_code": "L4Y 4C1", "review_count": "4", "stars": "5.0", "state": "ON"}, {"": "233", "address": "8440 Las Vegas Blvd S", "business_id": "j7fNRr4BKn0Uq8pbapKHwQ", "city": "Las Vegas", "latitude": "36.0370126", "longitude": "-115.1717328", "name": "Malibu Bay Suites", "postal_code": "89123", "review_count": "3", "stars": "2.5", "state": "NV"}, {"": "234", "address": "210 E Trade St, Ste A300", "business_id": "0PKz4McHMpClZKzqbna4fw", "city": "Charlotte", "latitude": "35.2253172", "longitude": "-80.8424885", "name": "Suite", "postal_code": "28202", "review_count": "68", "stars": "2.0", "state": "NC"}, {"": "235", "address": "37500 Colorado Ave", "business_id": "Uu-B8Dq4TEtJtqR9xe2NYQ", "city": "Avon", "latitude": "41.4561601", "longitude": "-82.0383862", "name": "Smith's Custom Catering", "postal_code": "44011", "review_count": "7", "stars": "4.5", "state": "OH"}, {"": "236", "address": "3725 E Van Buren St", "business_id": "_vHBpFRIpgSB8vMG95NcCA", "city": "Phoenix", "latitude": "33.450865", "longitude": "-112.0006992", "name": "Western Lodge", "postal_code": "85008", "review_count": "33", "stars": "1.5", "state": "AZ"}, {"": "237", "address": "702 S High Point Rd", "business_id": "r7A9vBTA0lyFly6pcVuliQ", "city": "Madison", "latitude": "43.0511666", "longitude": "-89.5224329", "name": "Blue Plate Catering", "postal_code": "53719", "review_count": "23", "stars": "4.0", "state": "WI"}, {"": "238", "address": "9194 Broadview Rd", "business_id": "1MKwcKfwz8u1GSnXUdrx-A", "city": "Broadview Hts", "latitude": "41.3159149", "longitude": "-81.685906", "name": "Catan Fashions", "postal_code": "44147", "review_count": "28", "stars": "2.5", "state": "OH"}, {"": "239", "address": "1421 Golden Gate Blvd", "business_id": "LxGwVChkGreslgE2QTqodw", "city": "Mayfield Heights", "latitude": "41.5221903", "longitude": "-81.4486312", "name": "Comfort Inn Mayfield Heights Cleveland East", "postal_code": "44124", "review_count": "3", "stars": "2.5", "state": "OH"}, {"": "240", "address": "", "business_id": "0crFnrLWPldjkmVOMWPmTQ", "city": "Scottsdale", "latitude": "33.5243639", "longitude": "-111.8985922", "name": "Mustache Pretzels", "postal_code": "85250", "review_count": "5", "stars": "4.0", "state": "AZ"}, {"": "241", "address": "898 Pennsylvania 910, Ste 7", "business_id": "iXnOeWl0mmtsAJfwwW2aHQ", "city": "Pittsburgh", "latitude": "40.5068453", "longitude": "-79.9080757", "name": "Veronica Varos Photography", "postal_code": "15215", "review_count": "6", "stars": "5.0", "state": "PA"}, {"": "242", "address": "", "business_id": "YN58Coh1nvnsNS0FXIeAKg", "city": "Pittsburgh", "latitude": "40.474970692", "longitude": "-79.9432542916", "name": "Divine Celebrations", "postal_code": "15122", "review_count": "5", "stars": "3.5", "state": "PA"}, {"": "243", "address": "4186 Al Carrison St", "business_id": "MbpAhMoPs29xhkxFnqu5Yg", "city": "Las Vegas", "latitude": "36.2330997", "longitude": "-115.2719048", "name": "Jump Around Party Jumpers", "postal_code": "89129", "review_count": "19", "stars": "4.0", "state": "NV"}, {"": "244", "address": "18020 Kings Point Dr", "business_id": "KnzUN6CSrojtyUjf8F1jog", "city": "Cornelius", "latitude": "35.4589031244", "longitude": "-80.8939648099", "name": "Morningstar Marinas - Kings Point", "postal_code": "28031", "review_count": "9", "stars": "4.5", "state": "NC"}, {"": "245", "address": "", "business_id": "jrCcWqC7IWWu2zzxecITRw", "city": "Litchfield Park", "latitude": "33.4483771", "longitude": "-112.0740373", "name": "Az Perfect Pix Photo Booth", "postal_code": "85340", "review_count": "3", "stars": "4.5", "state": "AZ"}, {"": "246", "address": "", "business_id": "6QpC_1BM11WWrGT07JBAMw", "city": "Charlotte", "latitude": "35.2263714", "longitude": "-80.7990185", "name": "Gyro Twins", "postal_code": "28205", "review_count": "4", "stars": "3.5", "state": "NC"}, {"": "247", "address": "808 N Scottsdale Rd", "business_id": "uMN3yBzsUbeL7YcYZZ3K5g", "city": "Tempe", "latitude": "33.4381114", "longitude": "-111.9265644", "name": "Country Inns & Suites by Carlson", "postal_code": "85281", "review_count": "8", "stars": "3.5", "state": "AZ"}, {"": "248", "address": "2950 S Water St", "business_id": "qJZvNzpWMnXvVRbc3F9slA", "city": "Pittsburgh", "latitude": "40.4269720201", "longitude": "-79.9623334192", "name": "SpringHill Suites Pittsburgh Southside Works", "postal_code": "15203", "review_count": "39", "stars": "3.0", "state": "PA"}, {"": "249", "address": "15430 Innis Lake Road", "business_id": "lesSge7C1nb7Ggo9H3W6Kw", "city": "Caledon East", "latitude": "43.866937", "longitude": "-79.840935", "name": "The Royal Ambassador", "postal_code": "L7C 2Z1", "review_count": "10", "stars": "3.0", "state": "ON"}, {"": "250", "address": "1646 Hwy 160 W", "business_id": "9Cx6XeFHPsdAZ4OxZ6yn8Q", "city": "Fort Mill", "latitude": "35.066659", "longitude": "-80.959564", "name": "Jumpin' Java", "postal_code": "29708", "review_count": "12", "stars": "3.0", "state": "SC"}, {"": "251", "address": "3200 E Sky Harbor Blvd", "business_id": "69mZ09xndc2Rq-GdyPWtxw", "city": "Phoenix", "latitude": "33.4347659", "longitude": "-112.0105709", "name": "Dollar Thrifty Automotive Group", "postal_code": "85034", "review_count": "3", "stars": "2.5", "state": "AZ"}, {"": "252", "address": "26383 Broadway Ave", "business_id": "hJwAmGQhRUbM0oCLJ_I3TQ", "city": "Bedford", "latitude": "41.3530905", "longitude": "-81.491705", "name": "Roseland Lanes", "postal_code": "44146", "review_count": "3", "stars": "4.5", "state": "OH"}, {"": "253", "address": "4717 Shamrock Dr", "business_id": "_1HxFFd-tBBHs-X0hOmo7Q", "city": "Charlotte", "latitude": "35.227005", "longitude": "-80.74651", "name": "Alexander Homestead Weddings", "postal_code": "28215", "review_count": "15", "stars": "4.0", "state": "NC"}, {"": "254", "address": "", "business_id": "FliczxaG4W7WEHJKdYzCNg", "city": "Brunswick", "latitude": "41.2381096", "longitude": "-81.8418006", "name": "A Touch of Class Limousine Service", "postal_code": "44212", "review_count": "7", "stars": "3.0", "state": "OH"}, {"": "255", "address": "3017 S Decatur Blvd", "business_id": "E6WsY-I25-8sWtqG1-s1jg", "city": "Las Vegas", "latitude": "36.135101", "longitude": "-115.208453", "name": "Altenburg Studio of Photography", "postal_code": "89102", "review_count": "4", "stars": "4.0", "state": "NV"}, {"": "256", "address": "1112 W University Ave", "business_id": "hDhC_DgEIKK5D961doKOXQ", "city": "Urbana", "latitude": "40.1166867", "longitude": "-88.2237355", "name": "Durst Cycle & Fitness", "postal_code": "61801", "review_count": "30", "stars": "2.0", "state": "IL"}, {"": "257", "address": "214 W Main St", "business_id": "sOPBbhDCi7bJlW7dNBuITg", "city": "Urbana", "latitude": "40.112708", "longitude": "-88.209562", "name": "A Plus VIP Lounge", "postal_code": "61801", "review_count": "16", "stars": "3.5", "state": "IL"}, {"": "258", "address": "20707 N Pima Rd, Ste 140-145, DC Ranch", "business_id": "LpHi2ooFxVn5Ntttw_IcaQ", "city": "Scottsdale", "latitude": "33.6734322408", "longitude": "-111.889232427", "name": "The Herb Box", "postal_code": "85255", "review_count": "303", "stars": "4.0", "state": "AZ"}, {"": "259", "address": "130 Davis Dr", "business_id": "xCFdXTSHEMA-8VMrUrQUiw", "city": "Newmarket", "latitude": "44.0544172", "longitude": "-79.474707", "name": "Piccola Italia", "postal_code": "L3Y 2N1", "review_count": "15", "stars": "4.0", "state": "ON"}, {"": "260", "address": "3780 Losee Rd", "business_id": "4-dpdzSCWtVtVxOdvVFg2w", "city": "North Las Vegas", "latitude": "36.2271491", "longitude": "-115.1198876", "name": "McCandless International Trucks", "postal_code": "89030", "review_count": "5", "stars": "2.0", "state": "NV"}, {"": "261", "address": "1801 Lakeshore Road W", "business_id": "mQkVFNSDpD4frPUMycVoWw", "city": "Mississauga", "latitude": "43.5165531", "longitude": "-79.6250747", "name": "Solstice Restaurant & Wine Bar", "postal_code": "L5J 1J6", "review_count": "30", "stars": "4.0", "state": "ON"}, {"": "262", "address": "20090 Van Aken Blvd", "business_id": "D4YDe_3JihDEPUosO5nH-A", "city": "Shaker Heights", "latitude": "41.4655963", "longitude": "-81.538633", "name": "QDOBA Mexican Eats", "postal_code": "44122", "review_count": "11", "stars": "3.0", "state": "OH"}, {"": "263", "address": "7601 E Frank Lloyd Wright B", "business_id": "lUiSE6tyBrVNgYi33iCdBg", "city": "Scottsdale", "latitude": "33.6353886", "longitude": "-111.9157674", "name": "Pinnacle Infiniti", "postal_code": "85260", "review_count": "3", "stars": "2.0", "state": "AZ"}, {"": "264", "address": "5658a Avenue du Parc", "business_id": "uxBE0rPD52Pi-_QlpSVOyw", "city": "Montr\u00c3\u00a9al", "latitude": "45.5228744", "longitude": "-73.6040245", "name": "La Tasse Gamine", "postal_code": "H2V", "review_count": "5", "stars": "4.0", "state": "QC"}, {"": "265", "address": "275 Highland Rd.", "business_id": "BsxitzNoAiiTpOuXRTXIwQ", "city": "Macedonia", "latitude": "41.300139", "longitude": "-81.516708", "name": "Days Inn Macedonia", "postal_code": "44056", "review_count": "3", "stars": "3.0", "state": "OH"}, {"": "266", "address": "6635 Boulder Hwy", "business_id": "fRQ4Rg_oCz6jV7XmccF1OQ", "city": "Las Vegas", "latitude": "36.0799562095", "longitude": "-115.026950966", "name": "Duck Creek RV Park", "postal_code": "89122", "review_count": "17", "stars": "3.0", "state": "NV"}, {"": "267", "address": "4710 E Ray Rd", "business_id": "TYMXY6WWeqKfiVPF9xW5YQ", "city": "Phoenix", "latitude": "33.3214659", "longitude": "-111.9836794", "name": "Hobby Lobby", "postal_code": "85044", "review_count": "31", "stars": "3.5", "state": "AZ"}, {"": "268", "address": "122 Daugherty Dr", "business_id": "_FKBxtZpTvJNd95b32y-zw", "city": "Monroeville", "latitude": "40.4359294", "longitude": "-79.754285", "name": "Spring Hill Suites", "postal_code": "15146", "review_count": "8", "stars": "3.0", "state": "PA"}, {"": "269", "address": "650 Evans Avenue", "business_id": "Q0M11fp8UpBfavdtI2K4YA", "city": "Etobicoke", "latitude": "43.609955", "longitude": "-79.552498", "name": "Canadas Best Value Inn", "postal_code": "M8W 2W6", "review_count": "8", "stars": "2.5", "state": "ON"}, {"": "270", "address": "3730 S Las Vegas Blvd", "business_id": "E-6l98hX8jICTF6rKHxI8g", "city": "Las Vegas", "latitude": "36.1073485", "longitude": "-115.1765836", "name": "Aria Sky Suites", "postal_code": "89109", "review_count": "64", "stars": "4.5", "state": "NV"}, {"": "271", "address": "3403 Yonge Street", "business_id": "UVKi839mvCc9BrCmeJbitA", "city": "Toronto", "latitude": "43.7326472", "longitude": "-79.4039702", "name": "Shinobu Sushi", "postal_code": "M4N 2M8", "review_count": "90", "stars": "4.0", "state": "ON"}, {"": "272", "address": "", "business_id": "B0oPevsWdUron9Pc2slNSw", "city": "Gilbert", "latitude": "33.3528264", "longitude": "-111.789027", "name": "Dining In Personal Chef and Catering", "postal_code": "85296", "review_count": "4", "stars": "5.0", "state": "AZ"}, {"": "273", "address": "3758 E Washington Ave", "business_id": "1liUSt-YGGhDpXpik_oezQ", "city": "Madison", "latitude": "43.118634", "longitude": "-89.322792", "name": "Klein's Floral & Greenhouses", "postal_code": "53704", "review_count": "13", "stars": "3.5", "state": "WI"}, {"": "274", "address": "3667 S Las Vegas Blvd", "business_id": "-MwAxDEDeWxN2Mj9U0Rzww", "city": "Las Vegas", "latitude": "36.1100668", "longitude": "-115.172501", "name": "VIP Unlimited", "postal_code": "89169", "review_count": "14", "stars": "4.0", "state": "NV"}, {"": "275", "address": "3400 E Sky Harbor Blvd, Ste 3300", "business_id": "JmI9nslLD7KZqRr__Bg6NQ", "city": "Phoenix", "latitude": "33.4359431", "longitude": "-112.011026", "name": "Phoenix Sky Harbor International Airport", "postal_code": "85034", "review_count": "2215", "stars": "3.0", "state": "AZ"}, {"": "276", "address": "1 Wiltshire Avenue, Unit S", "business_id": "LYuY6kXhZzFtxR51eUiRvQ", "city": "Toronto", "latitude": "43.66776", "longitude": "-79.450427", "name": "Urban Acorn Catering", "postal_code": "M6N 2V7", "review_count": "9", "stars": "4.5", "state": "ON"}, {"": "277", "address": "8650 W Peoria Ave, Ste 1038", "business_id": "pHAWyuEiHNQRA-GuYoDDEw", "city": "Peoria", "latitude": "33.5814439", "longitude": "-112.2452525", "name": "What's Fresh?", "postal_code": "85345", "review_count": "18", "stars": "5.0", "state": "AZ"}, {"": "278", "address": "", "business_id": "fPb5DJCYSKFVrFHuXGS3uA", "city": "Gilbert", "latitude": "33.3519301", "longitude": "-111.8210866", "name": "RoseBud Entertainment", "postal_code": "85233", "review_count": "3", "stars": "5.0", "state": "AZ"}, {"": "279", "address": "Grabbrunnenstr. 19", "business_id": "6yNoo-XSCV43Fjuk2HdIdQ", "city": "Esslingen am Neckar", "latitude": "48.7419", "longitude": "9.31391", "name": "Best Western Premier Hotel", "postal_code": "73728", "review_count": "10", "stars": "4.0", "state": "BW"}, {"": "280", "address": "", "business_id": "BcgSTNCsLB0OIetCT2Psgg", "city": "Phoenix", "latitude": "33.4962205", "longitude": "-111.9641728", "name": "US Tech Support Solutions", "postal_code": "85018", "review_count": "9", "stars": "5.0", "state": "AZ"}, {"": "281", "address": "4030 E Bell Rd, Ste 101", "business_id": "jG46RAFm2kWshUIZ4HoJtg", "city": "Phoenix", "latitude": "33.6417888", "longitude": "-111.9947311", "name": "Tadka Sizzles", "postal_code": "85032", "review_count": "11", "stars": "3.0", "state": "AZ"}, {"": "282", "address": "401 Hawthorne Ln, Ste 110-233", "business_id": "WJA6_t0iCYPfnuuK8JQWIA", "city": "Charlotte", "latitude": "35.216101", "longitude": "-80.822107", "name": "Scott Clinton Photography", "postal_code": "28204", "review_count": "4", "stars": "5.0", "state": "NC"}, {"": "283", "address": "1135 Crestlawn Drive, Unit A", "business_id": "6ZynF8rNenhKwOY5oSM82Q", "city": "Mississauga", "latitude": "43.6295513", "longitude": "-79.6237814", "name": "Airlift Airport Taxi Service Ltd", "postal_code": "L4W 4Z7", "review_count": "3", "stars": "2.5", "state": "ON"}, {"": "284", "address": "", "business_id": "vWVDTdYE1TFDWsby9klJ2w", "city": "Glendale", "latitude": "33.5903698", "longitude": "-112.1728283", "name": "Ugly Cakes Bakery", "postal_code": "85304", "review_count": "16", "stars": "5.0", "state": "AZ"}, {"": "285", "address": "10217 Yonge Street", "business_id": "aFjYs3ilkoNz6YDAnSMgsw", "city": "Richmond Hill", "latitude": "43.8765134", "longitude": "-79.4384043", "name": "Let's Make It!", "postal_code": "L4C 3B2", "review_count": "5", "stars": "5.0", "state": "ON"}, {"": "286", "address": "2515 Jay Ave", "business_id": "GgPTifPYDT05NfPEbgWZ1g", "city": "Cleveland", "latitude": "41.4861296", "longitude": "-81.7058162", "name": "Perplexity Games Escape Room - Cleveland", "postal_code": "44113", "review_count": "9", "stars": "5.0", "state": "OH"}, {"": "287", "address": "7230 Las Vegas Blvd S", "business_id": "KH9jRi01zb4--E_I9SPg6w", "city": "Las Vegas", "latitude": "36.05824", "longitude": "-115.171103", "name": "Manor Suites", "postal_code": "89119", "review_count": "17", "stars": "2.0", "state": "NV"}, {"": "288", "address": "", "business_id": "KEuFjvvMFMRpwigRlWRkcw", "city": "Las Vegas", "latitude": "36.0357492", "longitude": "-115.1533426", "name": "Las Vegas Stripers", "postal_code": "89123", "review_count": "9", "stars": "2.0", "state": "NV"}, {"": "289", "address": "3630 E Indian School Rd", "business_id": "ZojKxVZmp2GVv1negJCOrQ", "city": "Phoenix", "latitude": "33.4954462", "longitude": "-112.0027779", "name": "Pie Snob", "postal_code": "85018", "review_count": "89", "stars": "4.5", "state": "AZ"}, {"": "290", "address": "50 Rose Street North Lane", "business_id": "kBZQR7ybkYfY1xLj5oIFCg", "city": "Edinburgh", "latitude": "55.9522273", "longitude": "-3.201401", "name": "CODE Hostel", "postal_code": "EH2", "review_count": "3", "stars": "4.5", "state": "EDH"}, {"": "291", "address": "4091 William Flynn Hwy, Ste 500", "business_id": "gMMSxoxlu-CcocrwRJfgPg", "city": "Allison Park", "latitude": "40.567884", "longitude": "-79.9550129", "name": "This Magic Moment Bridal Studio", "postal_code": "15101", "review_count": "14", "stars": "5.0", "state": "PA"}, {"": "292", "address": "1005 Rue Guy", "business_id": "koJpo8iu90Ze1DP3eamiJA", "city": "Montr\u00c3\u00a9al", "latitude": "45.493247", "longitude": "-73.573629", "name": "Enterprise Rent-A-Car", "postal_code": "H3H 2K4", "review_count": "6", "stars": "2.5", "state": "QC"}, {"": "293", "address": "636 W University Dr", "business_id": "-YPpC_g4cqtfL6KeWtSTmg", "city": "Mesa", "latitude": "33.4227335", "longitude": "-111.8453253", "name": "The Wright House", "postal_code": "85201", "review_count": "22", "stars": "4.5", "state": "AZ"}, {"": "294", "address": "", "business_id": "3kE-4EBovFl_uyfqH5vlkg", "city": "Phoenix", "latitude": "33.5079722", "longitude": "-112.1012912", "name": "NAK Productions", "postal_code": "85015", "review_count": "3", "stars": "5.0", "state": "AZ"}, {"": "295", "address": "2161 Lake Shore Boulevard W", "business_id": "XlYMcyTdga57MibKjF67tQ", "city": "Etobicoke", "latitude": "43.6254601", "longitude": "-79.4798897", "name": "Casa Mendoza Restaurant & Motel", "postal_code": "M8V 1A1", "review_count": "10", "stars": "2.5", "state": "ON"}, {"": "296", "address": "38750 Mentor Ave", "business_id": "L0xfEYQ6QXZNcfatlJjMNw", "city": "Willoughby", "latitude": "41.6442679", "longitude": "-81.3927973", "name": "Leikin Motor Companies", "postal_code": "44094", "review_count": "3", "stars": "4.5", "state": "OH"}, {"": "297", "address": "125 N 2nd St, Ste 110", "business_id": "nxS8PhLtqWLjM4Fq65Pr9Q", "city": "Phoenix", "latitude": "33.4496084", "longitude": "-112.0710454", "name": "Stephen K Shefrin Photography", "postal_code": "85004", "review_count": "9", "stars": "5.0", "state": "AZ"}, {"": "298", "address": "166 Greenwich Village Ave", "business_id": "LBrpr6LMaQDXkGq4iYJvdw", "city": "Las Vegas", "latitude": "36.023006", "longitude": "-115.165285", "name": "Adventure Entertainment", "postal_code": "89123", "review_count": "3", "stars": "5.0", "state": "NV"}, {"": "299", "address": "2424 N Davidson St, Ste 112A", "business_id": "B2S7o3tImoCPrDVvJikVpw", "city": "Charlotte", "latitude": "35.241553", "longitude": "-80.812092", "name": "Red@28th", "postal_code": "28205", "review_count": "52", "stars": "3.0", "state": "NC"}, {"": "300", "address": "11382 Rang de la Fresni\u00c3\u00a8re", "business_id": "t_1myTZfYeEQ07Jr8JEF5Q", "city": "St-Beno\u00c3\u00aet de Mirabel", "latitude": "45.5722197", "longitude": "-74.0527801", "name": "Au Pied de Cochon", "postal_code": "J7N 2R9", "review_count": "57", "stars": "4.0", "state": "QC"}, {"": "301", "address": "1563 S Gilbert Rd", "business_id": "MnjIV1vE1K_C08d1RfvIqQ", "city": "Mesa", "latitude": "33.387619", "longitude": "-111.7872405", "name": "Best Western Plus Mesa", "postal_code": "85204", "review_count": "26", "stars": "2.5", "state": "AZ"}, {"": "302", "address": "20280 N 59th Ave, Ste A116", "business_id": "uZRxxen2bK6AszCZYGIgcQ", "city": "Glendale", "latitude": "33.6704062", "longitude": "-112.1880727", "name": "Elite Flowers And Gifts", "postal_code": "85308", "review_count": "26", "stars": "4.5", "state": "AZ"}, {"": "303", "address": "21 Keele Street", "business_id": "U0Wm6w76PiuCDc21fAP3Vg", "city": "Toronto", "latitude": "43.6555937", "longitude": "-79.4600635", "name": "Keele Subway Station", "postal_code": "M6P 2J8", "review_count": "4", "stars": "3.5", "state": "ON"}, {"": "304", "address": "9375 E Bell Rd", "business_id": "8IlCv__644rGREaSGzkM-A", "city": "Scottsdale", "latitude": "33.6392402649", "longitude": "-111.881721497", "name": "Ice Den Scottsdale", "postal_code": "85260", "review_count": "45", "stars": "4.0", "state": "AZ"}, {"": "305", "address": "", "business_id": "YmewapdNHPvN-fAINZHa0g", "city": "Mississauga", "latitude": "43.5652104", "longitude": "-79.576674", "name": "Blue & White Taxi", "postal_code": "L5G 4S4", "review_count": "3", "stars": "2.5", "state": "ON"}, {"": "306", "address": "3245 St Rose Pkwy", "business_id": "8IpvVSHXgXCIsR154W4pSg", "city": "Henderson", "latitude": "35.996854", "longitude": "-115.12602", "name": "Hampton Inn & Suites Las Vegas South", "postal_code": "89052", "review_count": "58", "stars": "4.0", "state": "NV"}, {"": "307", "address": "", "business_id": "Oe_oK1Nx0tTR3fHQ86F70w", "city": "Henderson", "latitude": "35.952556", "longitude": "-115.0228736", "name": "Specture Media", "postal_code": "89052", "review_count": "6", "stars": "5.0", "state": "NV"}, {"": "308", "address": "", "business_id": "vq1AJFFhcWv3O-mJgB1gag", "city": "Las Vegas", "latitude": "36.2576752", "longitude": "-115.2304131", "name": "Acoustic Sessions with ManArchy", "postal_code": "89130", "review_count": "8", "stars": "5.0", "state": "NV"}, {"": "309", "address": "2651 W Guadalupe Rd", "business_id": "H4Vn1FZ_hftZHB7guxFxOg", "city": "Mesa", "latitude": "33.3634487", "longitude": "-111.8908209", "name": "Sarah Horne Photography", "postal_code": "85202", "review_count": "5", "stars": "2.5", "state": "AZ"}, {"": "310", "address": "3500 Woodland Ave", "business_id": "k6Y0a8hgV4ec875CqPWSFw", "city": "Cleveland", "latitude": "41.4900645", "longitude": "-81.6647659484", "name": "Dean Supply Company", "postal_code": "44115", "review_count": "19", "stars": "4.5", "state": "OH"}, {"": "311", "address": "14950 Snow Rd", "business_id": "_LQHT49q2srGRa4sj97mkQ", "city": "Brookpark", "latitude": "41.4051343", "longitude": "-81.8004964", "name": "AMF Brookgate Lanes", "postal_code": "44142", "review_count": "8", "stars": "4.0", "state": "OH"}, {"": "312", "address": "2401 Las Vegas Blvd N", "business_id": "1t7wb97YxgMP3zAWkv2wiw", "city": "North Las Vegas", "latitude": "36.2036445", "longitude": "-115.1186837", "name": "Vegas Chalet Motel", "postal_code": "89030", "review_count": "4", "stars": "1.0", "state": "NV"}, {"": "313", "address": "18029 Cleveland Pkwy", "business_id": "iXONwpI8qvwgEJBXV10rLw", "city": "Cleveland", "latitude": "41.4240081943", "longitude": "-81.8397957938", "name": "Dollar Rent a Car", "postal_code": "44135", "review_count": "6", "stars": "2.5", "state": "OH"}, {"": "314", "address": "Steubenstr. 1", "business_id": "7SIUaYCojsHTn3PN404lFA", "city": "Stuttgart", "latitude": "48.7961", "longitude": "9.20839", "name": "Zur Traube", "postal_code": "70190", "review_count": "8", "stars": "4.0", "state": "BW"}, {"": "315", "address": "2 Main Street", "business_id": "loh_sTf7tvLIFZAGqB1zRw", "city": "Livingston", "latitude": "55.8858389", "longitude": "-3.5386892999999997", "name": "Livingston Inn", "postal_code": "EH54 7AF", "review_count": "8", "stars": "4.0", "state": "WLN"}, {"": "316", "address": "2507 E Roma Ave", "business_id": "_Wcp-JfSzhjplX0J1Q_5OA", "city": "Phoenix", "latitude": "33.500981", "longitude": "-112.027641", "name": "Chefs At Your Home", "postal_code": "85016", "review_count": "6", "stars": "5.0", "state": "AZ"}, {"": "317", "address": "1201 S Las Vegas Blvd", "business_id": "kd3gE_3MAZjiNUjxD2ubnw", "city": "Las Vegas", "latitude": "36.24779", "longitude": "-115.32596", "name": "Posh Club Hop", "postal_code": "89119", "review_count": "8", "stars": "4.0", "state": "NV"}, {"": "318", "address": "", "business_id": "rmqbBREx12wU80q_moTfGg", "city": "Las Vegas", "latitude": "36.18", "longitude": "-115.14", "name": "Red Rock Photography Studios", "postal_code": "89133", "review_count": "3", "stars": "5.0", "state": "NV"}, {"": "319", "address": "14 Malley Road", "business_id": "aFf5JUOmwoKCiTUNRfiO_Q", "city": "Scarborough", "latitude": "43.7209502", "longitude": "-79.2839105", "name": "ABSO Rental Services", "postal_code": "M1L 2E2", "review_count": "4", "stars": "4.0", "state": "ON"}, {"": "320", "address": "", "business_id": "1Z82dBHvZ6wVV0crD94lFg", "city": "Charlotte", "latitude": "35.0535496", "longitude": "-80.8211696", "name": "J&J Transportation", "postal_code": "28277", "review_count": "3", "stars": "1.5", "state": "NC"}, {"": "321", "address": "245 W Garrison Blvd, Ste H", "business_id": "La_0EvTtRZOV-9AnG3ke6Q", "city": "Gastonia", "latitude": "35.2526462402", "longitude": "-81.1862789553", "name": "Olio's", "postal_code": "28052", "review_count": "11", "stars": "4.0", "state": "NC"}, {"": "322", "address": "4428 Liberty Ave", "business_id": "HhPVzZYQI-akaXRK_A4dKQ", "city": "Pittsburgh", "latitude": "40.462989", "longitude": "-79.9521014", "name": "Del's Bar and Ristorante DelPizzo", "postal_code": "15224", "review_count": "97", "stars": "2.5", "state": "PA"}, {"": "323", "address": "310 Tiffany Ct", "business_id": "svrBwmUp6w-mbWPKeiXX0A", "city": "Champaign", "latitude": "40.114308", "longitude": "-88.31738", "name": "Lex-Lincolnland Express", "postal_code": "61822", "review_count": "10", "stars": "1.5", "state": "IL"}, {"": "324", "address": "555 S McDowell St", "business_id": "yau0HbUmuSkmRoHORKum0w", "city": "Charlotte", "latitude": "35.21681", "longitude": "-80.838267", "name": "Le Meridien Charlotte", "postal_code": "29204", "review_count": "65", "stars": "2.0", "state": "NC"}, {"": "325", "address": "1112 S Rainbow Blvd", "business_id": "zp-K5s3pGTWuuaVBWo6WZA", "city": "Las Vegas", "latitude": "36.1583669", "longitude": "-115.2431523", "name": "HoneyBaked Ham", "postal_code": "89146", "review_count": "32", "stars": "4.0", "state": "NV"}, {"": "326", "address": "", "business_id": "zwg2PdDB6hac2mMjYkUhaQ", "city": "Charlotte", "latitude": "35.2326781", "longitude": "-80.8460822", "name": "Tour de Food", "postal_code": "28202", "review_count": "16", "stars": "4.5", "state": "NC"}, {"": "327", "address": "3890 Graphic Ctr Dr", "business_id": "UDmcIO4nqUy-6H_8CWb1tw", "city": "Las Vegas", "latitude": "36.1000159", "longitude": "-115.1923206", "name": "Siegel Suites Tropicana", "postal_code": "89118", "review_count": "8", "stars": "2.0", "state": "NV"}, {"": "328", "address": "2011 E 5th St, Ste 10", "business_id": "4eb68Quy-_ubwJ4BfpMQMg", "city": "Tempe", "latitude": "33.425302", "longitude": "-111.8991585", "name": "ET Limousine Service", "postal_code": "85281", "review_count": "6", "stars": "2.5", "state": "AZ"}, {"": "329", "address": "10127 W Charleston Blvd, Ste C", "business_id": "TEfMSluNV5w_U90p3rUgEQ", "city": "Las Vegas", "latitude": "36.1584235", "longitude": "-115.3159255", "name": "SUV & Trucks R Us", "postal_code": "89135", "review_count": "22", "stars": "4.5", "state": "NV"}, {"": "330", "address": "Red Rock Ranch Rd", "business_id": "XEo-ESml2ttkGhpTLbSXGA", "city": "Las Vegas", "latitude": "36.1361835", "longitude": "-115.342173", "name": "Martina Zando Photography", "postal_code": "89135", "review_count": "11", "stars": "5.0", "state": "NV"}, {"": "331", "address": "15555 North Frank Lloyd Wright Blvd", "business_id": "6VOPHB5033Sm35BqVDcyPQ", "city": "Scottsdale", "latitude": "33.6280580783", "longitude": "-111.880219616", "name": "Landmark Valet", "postal_code": "85260", "review_count": "5", "stars": "5.0", "state": "AZ"}, {"": "332", "address": "15671 W Roosevelt St, Ste 102-103", "business_id": "14VI4fSpMssBVjGXQ-QjSQ", "city": "Goodyear", "latitude": "33.4569896", "longitude": "-112.3961814", "name": "Rockstar Nails", "postal_code": "85338", "review_count": "12", "stars": "5.0", "state": "AZ"}, {"": "333", "address": "11 Union St S, Ste 108", "business_id": "QxKTm1nGBZhCxCmOGCZdkA", "city": "Concord", "latitude": "35.410539", "longitude": "-80.580681", "name": "Havana Carolina Restaurant & Bar", "postal_code": "28025", "review_count": "65", "stars": "3.5", "state": "NC"}, {"": "334", "address": "15940 Northcross Dr, Ste A", "business_id": "eTLHyThSSwUgQD93ofe36Q", "city": "Huntersville", "latitude": "35.4334116", "longitude": "-80.8702972", "name": "Meg-Art Pottery Painting Studio & Espresso Bar", "postal_code": "28078", "review_count": "21", "stars": "4.5", "state": "NC"}, {"": "335", "address": "", "business_id": "A7Hb0SEYZH-n70SS4DKJJA", "city": "Las Vegas", "latitude": "36.128561", "longitude": "-115.1711298", "name": "Surreal Nightlife & Bottle Service", "postal_code": "89109", "review_count": "73", "stars": "5.0", "state": "NV"}, {"": "336", "address": "210 East Trade St", "business_id": "PkJUpidg_HzdxtdF6wDxeg", "city": "Charlotte", "latitude": "35.2253172", "longitude": "-80.8424885", "name": "Aloft Charlotte Uptown at the EpiCentre", "postal_code": "28202", "review_count": "125", "stars": "3.0", "state": "NC"}, {"": "337", "address": "Schwieberdinger Str. 198", "business_id": "W4ldVyq3FSpsPGUxPAItTg", "city": "Stuttgart", "latitude": "48.8405", "longitude": "9.1416", "name": "Hotel Neuwirtshaus", "postal_code": "70435", "review_count": "3", "stars": "3.5", "state": "BW"}, {"": "338", "address": "5615 Cameron St, Ste 10", "business_id": "tQj7K3WXrA7phN20M2ABbA", "city": "Las Vegas", "latitude": "36.087907", "longitude": "-115.2044719", "name": "Sight & Sound Events", "postal_code": "89118", "review_count": "9", "stars": "4.5", "state": "NV"}, {"": "339", "address": "1292 Worton Blvd", "business_id": "i6ArYWLyezznYGpCTy4OwQ", "city": "Mayfield Heights", "latitude": "41.525326", "longitude": "-81.454987", "name": "Kevin Chuey Photography", "postal_code": "44124", "review_count": "3", "stars": "5.0", "state": "OH"}, {"": "340", "address": "629 Danforth Avenue", "business_id": "jtE4O9Y1YdZAoKfWTtNC3w", "city": "Toronto", "latitude": "43.6786894", "longitude": "-79.3454552", "name": "The Forth", "postal_code": "M4K 1R2", "review_count": "19", "stars": "3.5", "state": "ON"}, {"": "341", "address": "16405-C Northcross Dr", "business_id": "WgyU-TT2SDr9BM1wwotbFg", "city": "Huntersville", "latitude": "35.4392768", "longitude": "-80.8712256", "name": "Armin's Catering and Events", "postal_code": "28078", "review_count": "3", "stars": "2.5", "state": "NC"}, {"": "342", "address": "36 Dalmeny Street", "business_id": "NJdvZdFmr9oBmIvxjTl_gQ", "city": "Edinburgh", "latitude": "55.9644946", "longitude": "-3.1742958", "name": "The Out of the Blue Drill Hall", "postal_code": "EH6 8RG", "review_count": "13", "stars": "4.0", "state": "EDH"}, {"": "343", "address": "500 N 9th St", "business_id": "H1mB9Qe4mUxHmGRE6IV1Zw", "city": "Phoenix", "latitude": "33.4538669", "longitude": "-112.0620907", "name": "Robert Godridge Photography", "postal_code": "85006", "review_count": "7", "stars": "5.0", "state": "AZ"}, {"": "344", "address": "7325 Engle Rd", "business_id": "Sp6HBpMfnPGPQy8HODEmzA", "city": "Middleburg Heights", "latitude": "41.367387", "longitude": "-81.8227988", "name": "TownePlace Suites Cleveland Airport", "postal_code": "44130", "review_count": "10", "stars": "4.5", "state": "OH"}, {"": "345", "address": "103 Federal St", "business_id": "qELIf4gzE_vlteu7pO7TZg", "city": "Pittsburgh", "latitude": "40.4470921252", "longitude": "-80.004046381", "name": "Atria's Restaurant", "postal_code": "15212", "review_count": "94", "stars": "3.0", "state": "PA"}, {"": "346", "address": "302-306 Gorgie Road", "business_id": "XCnjSU16OSqAhPHm03a3tQ", "city": "Edinburgh", "latitude": "55.9372398", "longitude": "-3.2359182", "name": "Kavelle", "postal_code": "EH11 2PP", "review_count": "4", "stars": "3.0", "state": "EDH"}, {"": "347", "address": "1580 Golden Mile Hwy", "business_id": "OCrIahNGIu0lipGuqiiApA", "city": "Monroeville", "latitude": "40.4308912", "longitude": "-79.7170803", "name": "Day Volkswagen", "postal_code": "15146", "review_count": "8", "stars": "3.0", "state": "PA"}, {"": "348", "address": "6904 Gothic Marigold", "business_id": "1nVssNvi5-wvcnmEtuB_cg", "city": "Las Vegas", "latitude": "36.286945", "longitude": "-115.291389", "name": "Stephen Salazar Photography", "postal_code": "89149", "review_count": "7", "stars": "4.5", "state": "NV"}, {"": "349", "address": "1501 N Marginal Rd, Ste 108", "business_id": "O5rigVcF_67GsPlXVi_zVQ", "city": "Cleveland", "latitude": "41.5112296", "longitude": "-81.6898286", "name": "Cleveland National Air Show", "postal_code": "44114", "review_count": "10", "stars": "4.5", "state": "OH"}, {"": "350", "address": "1053 Bellus Rd", "business_id": "AKGXzMW5PoAqvNQLJ2Foiw", "city": "Hinckley", "latitude": "41.2282519", "longitude": "-81.7237858", "name": "Buzzard Cove", "postal_code": "44233", "review_count": "9", "stars": "2.0", "state": "OH"}, {"": "351", "address": "", "business_id": "1WrRUZ5vvyLhzoSj2Rtr8g", "city": "Phoenix", "latitude": "33.39", "longitude": "-112.07", "name": "Randy's Vision Photography", "postal_code": "85066", "review_count": "8", "stars": "5.0", "state": "AZ"}, {"": "352", "address": "255 E Bonneville Ave", "business_id": "GH28jWGpSicu_XZ4CsYFxw", "city": "Las Vegas", "latitude": "36.1644206", "longitude": "-115.1472888", "name": "Downtown Vegas Chapel", "postal_code": "89101", "review_count": "14", "stars": "3.5", "state": "NV"}, {"": "353", "address": "500 N Rainbow, Ste 300", "business_id": "0Tutx9JhCi_HE6MUnbh5vw", "city": "Las Vegas", "latitude": "36.1780972", "longitude": "-115.2414278", "name": "Sexy Lexy Kitchen", "postal_code": "89107", "review_count": "3", "stars": "3.5", "state": "NV"}, {"": "354", "address": "900 Karen Ave, Ste C 116/118", "business_id": "9coMbIIOShQdUVUzl2gKUg", "city": "Las Vegas", "latitude": "36.1409043", "longitude": "-115.1429262", "name": "Blooming Memory", "postal_code": "89109", "review_count": "3", "stars": "5.0", "state": "NV"}, {"": "355", "address": "Mobile Cupcake Truck", "business_id": "IOjUXvq1a7ozDBTJD2jv7A", "city": "Henderson", "latitude": "36.0305060587", "longitude": "-115.079498748", "name": "Bake My Day", "postal_code": "89074", "review_count": "4", "stars": "4.5", "state": "NV"}, {"": "356", "address": "2672 Bloor Street W", "business_id": "WaDDm9h-FVhkWSEl0dQdIw", "city": "Toronto", "latitude": "43.6500957112", "longitude": "-79.494973149", "name": "Old Mill Station", "postal_code": "M8X 1G2", "review_count": "3", "stars": "3.0", "state": "ON"}, {"": "357", "address": "2121 E Sahara Ave", "business_id": "89_-iacfxHnUthGgdhcCkQ", "city": "Las Vegas", "latitude": "36.142521", "longitude": "-115.122036", "name": "Hertz", "postal_code": "89104", "review_count": "3", "stars": "1.0", "state": "NV"}, {"": "358", "address": "532 Governor Morrison St, Suite C110", "business_id": "5qZjwJTX3Flms0rw2G3oEA", "city": "Charlotte", "latitude": "35.1560739", "longitude": "-80.824814", "name": "Swoozie's", "postal_code": "28211", "review_count": "3", "stars": "3.5", "state": "NC"}, {"": "359", "address": "3990 W Chandler Blvd", "business_id": "cSFXSxQqAI1o4UrMqFOQRQ", "city": "Chandler", "latitude": "33.3058054785", "longitude": "-111.910528529", "name": "Staybridge Suites Phoenix - Chandler", "postal_code": "85226", "review_count": "23", "stars": "4.5", "state": "AZ"}, {"": "360", "address": "906 Dundas Street W", "business_id": "uLptsAY5qrXV-JQVfGz1fA", "city": "Toronto", "latitude": "43.651022", "longitude": "-79.4124023", "name": "Wonder Pens", "postal_code": "M6J 1W1", "review_count": "14", "stars": "4.0", "state": "ON"}, {"": "361", "address": "2945 Argentia Road", "business_id": "0KUyFnaBC9DyuB3swdiOCw", "city": "Mississauga", "latitude": "43.5998114958", "longitude": "-79.7836752419", "name": "Chuck E Cheese's", "postal_code": "L5N 0A2", "review_count": "11", "stars": "3.5", "state": "ON"}, {"": "362", "address": "", "business_id": "Tg-ct0EHM3FlURzhldkW-A", "city": "Charlotte", "latitude": "35.3301529", "longitude": "-80.7325287", "name": "Wish Upon A Star - Children's Parties", "postal_code": "28262", "review_count": "3", "stars": "4.0", "state": "NC"}, {"": "363", "address": "8609 W Sahara Ave", "business_id": "upGOg5zPrmFH-p4Y1urjJQ", "city": "Las Vegas", "latitude": "36.1434402343", "longitude": "-115.279461569", "name": "Chef Lucky Thai", "postal_code": "89117", "review_count": "23", "stars": "5.0", "state": "NV"}, {"": "364", "address": "", "business_id": "h1DoZqyEFbAQMhRMYe6wEg", "city": "Las Vegas", "latitude": "36.128561", "longitude": "-115.1711298", "name": "Social Snap Photo Booth Las Vegas", "postal_code": "89109", "review_count": "23", "stars": "5.0", "state": "NV"}, {"": "365", "address": "11434 Uptown Ave", "business_id": "uYl_QBtb7bXhu9sgb4kCrg", "city": "Cleveland", "latitude": "41.509333", "longitude": "-81.603917", "name": "ABC the Tavern", "postal_code": "44106", "review_count": "61", "stars": "3.5", "state": "OH"}, {"": "366", "address": "921 E Curry Rd, Unit B", "business_id": "Z3GVMJuFuGhf3rweIayJ9w", "city": "Tempe", "latitude": "33.481969", "longitude": "-111.927697", "name": "AZ Limo", "postal_code": "85281", "review_count": "29", "stars": "4.0", "state": "AZ"}, {"": "367", "address": "460 N Roca Cir", "business_id": "5_VHvMFLy7Ujpw_8jD1CsQ", "city": "Mesa", "latitude": "33.4243809", "longitude": "-111.768312", "name": "Clique Photo Station", "postal_code": "85213", "review_count": "4", "stars": "5.0", "state": "AZ"},