[
    {
        "address": "Las Vegas Nevada",
        "business_id": "zXvtouoaOsL0Bp0udugAjQ",
        "city": "Las Vegas",
        "latitude": 36.080966700000005,
        "longitude": -115.22448529999998,
        "name_x": "DeTourVegas",
        "postal_code": "89118",
        "score": 4.66853998633154,
        "stars": 5.0,
        "state": "NV",
        "total_ratings": 30,
        "image_url":"home/images/h1.jpg"
    },
    {
        "address": "3635 Las Vegas Blvd S",
        "business_id": "iBPyahdJRP5y0t25fF2W9w",
        "city": "Las Vegas",
        "latitude": 36.1145367627,
        "longitude": -115.172678268,
        "name_x": "Lip Smacking Foodie Tours",
        "postal_code": "89109",
        "score": 4.668173467266673,
        "stars": 4.9230769230769225,
        "state": "NV",
        "total_ratings": 39,
        "image_url":"home/images/h2.jpg"
    },
    {
        "address": "2207 S Las Vegas Blvd",
        "business_id": "EtNXaL2cOcrxQX8WUUhwsw",
        "city": "Las Vegas",
        "latitude": 36.1457163631,
        "longitude": -115.155796646,
        "name_x": "Little Vegas Chapel",
        "postal_code": "89104",
        "score": 4.6098817498313815,
        "stars": 4.962962962962963,
        "state": "NV",
        "total_ratings": 27,
        "image_url":"home/images/h3.jpg"
    },
    {
        "address": "6253 S Dean Martin, Ste C-D",
        "business_id": "O_6zhr9_r49cgw1r5nJIwA",
        "city": "Las Vegas",
        "latitude": 36.076199200000005,
        "longitude": -115.18182320000001,
        "name_x": "Turnt Up Tours",
        "postal_code": "89118",
        "score": 4.584908624869704,
        "stars": 4.837837837837838,
        "state": "NV",
        "total_ratings": 37,
        "image_url":"home/images/h4.jpg"
    },
    {
        "address": "3960 S Las Vegas Blvd",
        "business_id": "0XoTT540HMB_5q4Exj8yGA",
        "city": "Las Vegas",
        "latitude": 36.0904354064,
        "longitude": -115.17422274,
        "name_x": "Four Seasons Hotel Las Vegas",
        "postal_code": "89119",
        "score": 4.578325342956593,
        "stars": 4.696202531645571,
        "state": "NV",
        "total_ratings": 79,
        "image_url":"home/images/h5.jpg"
    },
    {
        "address": "4305 Dean Martin Dr, Ste 120",
        "business_id": "Ojjbjg1DGaq8sIMmK6VR0w",
        "city": "Las Vegas",
        "latitude": 36.1111086,
        "longitude": -115.1817547,
        "name_x": "Royalty Exotic Car Rentals",
        "postal_code": "89103",
        "score": 4.57710274118162,
        "stars": 5.0,
        "state": "NV",
        "total_ratings": 22,
        "image_url":"home/images/h6.jpg"
    },
    {
        "address": "915 N Central Ave",
        "business_id": "HHu9VyoA7RB1AR2NIFiT7g",
        "city": "Phoenix",
        "latitude": 33.4583869,
        "longitude": -112.07377439999999,
        "name_x": "Float Balloon Tours",
        "postal_code": "85004",
        "score": 4.57710274118162,
        "stars": 5.0,
        "state": "AZ",
        "total_ratings": 22,
        "image_url":"home/images/h7.jpg"
    },
    {
        "address": "3655 Las Vegas Blvd",
        "business_id": "68O4uYCd0YToLOLqHTBSZQ",
        "city": "Las Vegas",
        "latitude": 36.1128473081,
        "longitude": -115.17242081100001,
        "name_x": "Jeff Civillico: Comedy In Action",
        "postal_code": "89109",
        "score": 4.548221652618527,
        "stars": 4.862068965517241,
        "state": "NV",
        "total_ratings": 29,
        "image_url":"home/images/h8.jpg"
    },
    {
        "address": "14200 S Las Vegas Blvd",
        "business_id": "05USFUs4dX8LG6DCY2GNAA",
        "city": "Las Vegas",
        "latitude": 35.9364821,
        "longitude": -115.18730819999999,
        "name_x": "SPEEDVEGAS",
        "postal_code": "89054",
        "score": 4.5398703062666765,
        "stars": 4.916666666666667,
        "state": "NV",
        "total_ratings": 24,
        "image_url":"home/images/h9.jpg"
    },
    {
        "address": "3200 Polaris Ave",
        "business_id": "4z_hAnw2UV5CzfcjtVvWsg",
        "city": "Las Vegas",
        "latitude": 36.1314223,
        "longitude": -115.18671859999999,
        "name_x": "Scoot City Tours",
        "postal_code": "89102",
        "score": 4.528306903625653,
        "stars": 5.0,
        "state": "NV",
        "total_ratings": 19,
        "image_url":"home/images/h10.jpg"
    },
    {
        "address": "3752 Las Vegas Blvd S",
        "business_id": "jKmAswXvFVRHN4VP-88zOA",
        "city": "Las Vegas",
        "latitude": 36.106212,
        "longitude": -115.174213,
        "name_x": "Mandarin Oriental Las Vegas",
        "postal_code": "89109",
        "score": 4.513777615033864,
        "stars": 4.588235294117646,
        "state": "NV",
        "total_ratings": 119,
        "image_url":"home/images/h11.jpg"
    },
    {
        "address": "Las Vegas,NV",
        "business_id": "shJPvAZ1pdUVm9DORQ6g3g",
        "city": "Las Vegas",
        "latitude": 36.0212003177,
        "longitude": -115.168285919,
        "name_x": "Hot Shot Vegas",
        "postal_code": "89123",
        "score": 4.509439179770679,
        "stars": 5.0,
        "state": "NV",
        "total_ratings": 18,
        "image_url":"home/images/h12.jpg"
    },
    {
        "address": "6075 S Las Vegas Blvd",
        "business_id": "PL_kv7YO7ZwbDAm9R_ronQ",
        "city": "Las Vegas",
        "latitude": 36.0787059417,
        "longitude": -115.172061185,
        "name_x": "Maverick Helicopters",
        "postal_code": "89119",
        "score": 4.496228278489528,
        "stars": 4.634920634920634,
        "state": "NV",
        "total_ratings": 63,
        "image_url":"home/images/h13.jpg"
    },
    {
        "address": "1251 Rue Rachel E",
        "business_id": "HqIKlhg6OKhpBfEvMwSIwA",
        "city": "Montr\u00e9al",
        "latitude": 45.527219,
        "longitude": -73.573049,
        "name_x": "Fitz & Follwell",
        "postal_code": "H2J 2J9",
        "score": 4.489845365164115,
        "stars": 4.947368421052632,
        "state": "QC",
        "total_ratings": 19,
        "image_url":"home/images/h14.jpg"
    },
    {
        "address": "Old Town",
        "business_id": "ZiOWBZAgaiVJG-u7nX8IgQ",
        "city": "Scottsdale",
        "latitude": 33.4935503,
        "longitude": -111.92467549999999,
        "name_x": "Arizona Food Tours- Scottsdale and Tempe Food Tours",
        "postal_code": "85251",
        "score": 4.46943917977068,
        "stars": 4.9444444444444455,
        "state": "AZ",
        "total_ratings": 18,
        "image_url":"home/images/h15.jpeg"
    }
]